     2.11           OBSERVATION DATA    G (GPS)             RINEX VERSION / TYPE
teqc  2011Oct11                         20111023 09:34:07UTCPGM / RUN BY / DATE
Linux 2.4.20-8|Pentium IV|gcc -static|Linux|486/DX+         COMMENT
   0.000      (antenna height)                              COMMENT
 +48.78070287 (latitude)                                    COMMENT
  +9.17158381 (longitude)                                   COMMENT
0326.353      (elevation)                                   COMMENT
BIT 2 OF LLI FLAGS DATA COLLECTED UNDER A/S CONDITION       COMMENT
INSA (COGO code)                                            COMMENT
INSA                                                        MARKER NAME
INSA                                                        MARKER NUMBER
-Unknown-           -Unknown-                               OBSERVER / AGENCY
4925K35627          TRIMBLE NETR8       4.14                REC # / TYPE / VERS
n                   TRM55971.00     NONE                    ANT # / TYPE
  4157188.6232   671202.3189  4774769.4135                  APPROX POSITION XYZ
        0.0000        0.0000        0.0000                  ANTENNA: DELTA H/E/N
     1     1                                                WAVELENGTH FACT L1/2
     4    C1    L1    D1    S1                              # / TYPES OF OBSERV
    15                                                      LEAP SECONDS
 SNR is mapped to RINEX snr flag value [0-9]                COMMENT
  L1 & L2: min(max(int(snr_dBHz/6), 0), 9)                  COMMENT
  2011    10    21    21     0    0.0000000     GPS         TIME OF FIRST OBS
                                                            END OF HEADER
 11 10 21 21  0  0.0000000  0 11G13G32G17G20G04G07G23G31G10G30G02
  20155765.0784  105919197.42048       817.1844         49.6004
  24807272.2424  130363271.39747     -2984.4964         42.7004
  24583721.500   129188341.904 6     -3155.723          41.100
  22156274.0784  116432358.94747     -2734.5274         47.8004
  20893261.2584  109794764.97748       562.8324         50.5004
  24006470.539   126154961.773 7      3728.004          42.000
  20438748.2114  107406456.87448      -978.6214         51.4004
  25302810.977   132967108.753 6     -3258.719          40.000
  21910621.5554  115141275.85048      2638.1604         48.8004
  24859456.7274  130637340.19546      -315.5234         37.8004
  23734534.2194  124725786.40647      3218.8484         44.8004
 11 10 21 21  0  1.0000000  0 11G13G32G17G20G04G07G23G31G10G30G02
  20155610.1094  105918380.42148       816.9064         49.1004
  24807840.1954  130366255.89247     -2984.3124         42.6004
  24584321.805   129191497.666 6     -3155.578          40.800
  22156794.0004  116435093.43448     -2734.3914         48.0004
  20893154.6644  109794202.30248       562.5274         50.7004
  24005760.680   126151233.688 6      3728.238          41.100
  20438934.4454  107407435.53548      -978.7074         51.4004
  25303431.367   132970367.508 6     -3258.645          40.200
  21910119.1644  115138637.78348      2638.1174         49.1004
  24859516.8204  130637656.03046      -315.9224         38.3004
  23733921.7274  124722567.65347      3218.8634         45.1004
 11 10 21 21  0  2.0000000  0 11G13G32G17G20G04G07G23G31G10G30G02
  20155454.6414  105917564.18748       815.9224         49.3004
  24808407.3204  130369240.71347     -2984.9654         42.8004
  24584922.617   129194653.774 6     -3156.227          40.800
  22157314.5944  116437828.45648     -2735.2344         48.1004
  20893047.4614  109793640.55548       561.3594         50.2004
  24005051.914   126147505.979 6      3727.637          41.100
  20439120.5474  107408414.92548      -979.6094         51.1004
  25304051.570   132973626.750 6     -3259.383          40.200
  21909616.8364  115136000.19748      2637.4454         48.2004
  24859576.9774  130637972.80946      -317.0554         38.2004
  23733309.5944  124719349.43747      3218.0274         45.2004
 11 10 21 21  0  3.0000000  0 11G13G32G17G20G04G07G23G31G10G30G02
  20155299.4774  105916748.36748       815.5474         49.4004
  24808976.1174  130372225.41847     -2984.6604         42.6004
  24585524.063   129197809.775 6     -3156.055          41.300
  22157834.7664  116440563.57247     -2735.1294         47.8004
  20892940.7274  109793079.30748       560.9224         50.4004
  24004342.313   126143778.210 6      3727.648          41.400
  20439307.1094  107409394.61148      -979.8714         51.5004
  25304671.898   132976886.098 6     -3259.488          40.200
  21909115.0784  115133362.70348      2637.3634         48.1004
  24859637.7894  130638290.04246      -317.3554         38.8004
  23732697.1174  124716131.32647      3218.0084         44.9004
 11 10 21 21  0  4.0000000  0 11G13G32G17G20G04G07G23G31G10G30G02
  20155144.4454  105915933.19548       814.9224         49.6004
  24809544.1564  130375210.35247     -2984.9264         42.7004
  24586124.281   129200965.993 6     -3156.195          40.900
  22158355.5784  116443299.09147     -2735.5624         47.6004
  20892834.5314  109792518.84648       560.1844         50.8004
  24003633.516   126140050.666 7      3727.457          42.300
  20439493.8754  107410374.87648      -980.4064         51.4004
  25305292.766   132980145.822 6     -3259.809          40.300
  21908613.4224  115130725.59848      2637.0554         48.2004
  24859697.4844  130638608.06346      -318.3404         39.2004
  23732084.3524  124712913.65147      3217.5434         45.3004
 11 10 21 21  0  5.0000000  0 11G13G32G17G20G04G07G23G31G10G30G02
  20154989.3204  105915118.46248       814.5984         49.3004
  24810111.9454  130378195.22847     -2984.6724         42.7004
  24586724.430   129204122.212 6     -3156.184          40.900
  22158875.7814  116446034.77447     -2735.6804         47.7004
  20892727.6484  109791958.92748       559.7774         49.9004
  24002923.930   126136323.089 6      3727.691          41.800
  20439680.5084  107411355.47448      -980.6804         51.7004
  25305912.000   132983405.699 6     -3259.934          40.200
  21908111.7034  115128088.64848      2636.9384         48.1004
  24859758.2424  130638926.66446      -318.6374         39.2004
  23731472.6724  124709696.14547      3217.4964         45.1004
 11 10 21 21  0  6.0000000  0 11G13G32G17G20G04G07G23G31G10G30G02
  20154834.2584  105914304.31748       813.8014         49.3004
  24810680.2504  130381180.26847     -2985.0864         42.8004
  24587325.461   129207278.574 6     -3156.441          41.400
  22159396.1024  116448770.78647     -2736.2464         47.5004
  20892620.9844  109791399.71048       558.8674         49.9004
  24002214.344   126132595.712 6      3727.332          41.600
  20439867.1954  107412336.59648      -981.4614         51.9004
  25306533.125   132986665.883 6     -3260.402          39.900
  21907610.2114  115125452.00147      2636.4414         47.5004
  24859819.6724  130639245.97046      -319.7234         39.0004
  23730860.0394  124706478.97947      3217.0274         44.9004
 11 10 21 21  0  7.0000000  0 11G13G32G17G20G04G07G23G31G10G30G02
  20154679.3754  105913490.79248       813.2854         49.2004
  24811247.6564  130384165.41047     -2985.1174         42.2004
  24587926.258   129210435.113 6     -3156.676          41.800
  22159917.5164  116451507.11547     -2736.5474         47.2004
  20892514.8834  109790841.19548       558.2034         49.7004
  24001505.352   126128868.516 6      3727.051          41.300
  20440054.0004  107413318.23448      -981.9304         52.1004
  25307153.305   132989926.420 6     -3260.707          39.600
  21907108.5394  115122815.69447      2636.1094         47.8004
  24859880.2894  130639565.96646      -320.3524         39.4004
  23730247.9614  124703262.18347      3216.6174         44.9004
 11 10 21 21  0  8.0000000  0 11G13G32G17G20G04G07G23G31G10G30G02
  20154524.7664  105912677.68048       812.7344         49.2004
  24811816.2114  130387150.54247     -2985.2584         42.0004
  24588527.047   129213591.571 7     -3156.648          42.500
  22160437.7664  116454243.58247     -2736.7114         47.5004
  20892408.6804  109790283.22548       557.5084         49.6004
  24000795.656   126125141.287 7      3727.094          42.100
  20440240.5554  107414300.20748      -982.3124         51.6004
  25307773.648   132993187.056 6     -3260.863          39.800
  21906606.7584  115120179.52247      2635.9304         47.8004
  24859941.1954  130639886.52246      -321.0594         38.1004
  23729635.8444  124700045.55747      3216.3484         44.5004
 11 10 21 21  0  9.0000000  0 11G13G32G17G20G04G07G23G31G10G30G02
  20154370.0314  105911865.13348       811.9964         49.0004
  24812384.1334  130390135.72847     -2985.5044         42.1004
  24589127.305   129216748.148 7     -3156.902          42.500
  22160959.0554  116456980.34347     -2737.1564         47.6004
  20892302.8594  109789725.93448       556.7114         50.0004
  24000086.930   126121414.157 6      3726.766          41.800
  20440427.7114  107415282.63848      -982.9804         51.8004
  25308394.359   132996447.979 6     -3261.473          39.700
  21906104.7974  115117543.61248      2635.5354         48.5004
  24860002.0704  130640207.73746      -321.8124         38.7004
  23729023.3364  124696829.21147      3215.9734         44.6004
 11 10 21 21  0 10.0000000  0 11G13G32G17G20G04G07G23G31G10G30G02
  20154215.6644  105911053.11348       811.8324         48.9004
  24812951.6564  130393120.98347     -2985.2114         42.1004
  24589728.875   129219904.805 7     -3156.707          42.700
  22161479.8054  116459717.37747     -2737.1174         47.2004
  20892196.8284  109789169.28148       556.4104         49.9004
  23999377.469   126117687.134 6      3727.199          41.800
  20440614.8984  107416265.51048      -982.9924         51.7004
  25309014.438   132999709.118 6     -3261.086          39.800
  21905603.4694  115114907.96648      2635.5434         48.3004
  24860063.9224  130640529.57146      -322.0354         39.4004
  23728411.7274  124693613.17047      3216.0634         44.6004
 11 10 21 21  0 11.0000000  0 11G13G32G17G20G04G07G23G31G10G30G02
  20154061.1174  105910241.62448       811.2704         48.9004
  24813520.1884  130396106.28746     -2985.2034         41.9004
  24590329.234   129223061.531 7     -3156.684          42.600
  22162000.9384  116462454.62547     -2737.3634         47.9004
  20892091.2114  109788613.23448       555.8134         49.8004
  23998668.445   126113960.201 7      3727.004          42.100
  20440801.8364  107417248.83348      -983.5044         51.6004
  25309635.320   133002970.541 6     -3261.559          40.400
  21905102.0084  115112272.53448      2635.3554         48.1004
  24860125.5234  130640852.10146      -322.7384         39.7004
  23727799.5394  124690397.40647      3215.6844         44.6004
 11 10 21 21  0 12.0000000  0 11G13G32G17G20G04G07G23G31G10G30G02
  20153906.8914  105909430.81148       810.6604         49.1004
  24814088.6484  130399091.82146     -2985.3404         41.6004
  24590930.125   129226218.474 7     -3156.723          42.300
  22162521.5784  116465192.30448     -2737.6914         48.0004
  20891985.2424  109788058.01148       554.9964         49.0004
  23997959.125   126110233.519 7      3726.773          42.700
  20440989.1414  107418232.73448      -983.9574         51.3004
  25310256.203   133006232.300 6     -3261.742          39.900
  21904600.5474  115109637.51247      2635.0704         47.0004
  24860186.6094  130641175.40846      -323.4224         39.4004
  23727187.9774  124687182.06147      3215.3554         44.8004
 11 10 21 21  0 13.0000000  0 11G13G32G17G20G04G07G23G31G10G30G02
  20153752.7424  105908620.53048       809.9104         49.2004
  24814656.2194  130402077.40846     -2985.7584         41.6004
  24591530.953   129229375.520 7     -3157.082          42.300
  22163042.2034  116467930.22848     -2738.1604         48.2004
  20891879.6954  109787503.43148       554.1484         49.3004
  23997249.180   126106506.988 7      3726.363          42.100
  20441176.5474  107419217.09348      -984.6724         51.7004
  25310877.234   133009494.333 6     -3262.273          40.100
  21904098.6884  115107002.74847      2634.5354         47.0004
  24860247.8444  130641499.38546      -324.4844         38.4004
  23726575.8984  124683967.00847      3214.7974         44.3004
 11 10 21 21  0 14.0000000  0 11G13G32G17G20G04G07G23G31G10G30G02
  20153598.5634  105907810.71048       809.4924         49.6004
  24815224.6334  130405062.98746     -2985.7384         41.6004
  24592132.000   129232532.584 7     -3157.102          42.500
  22163563.6414  116470668.34048     -2738.3284         48.5004
  20891774.4064  109786949.40948       553.5984         49.5004
  23996540.367   126102780.381 7      3726.477          42.100
  20441363.8134  107420201.83748      -985.0664         51.7004
  25311497.555   133012756.546 6     -3262.410          40.300
  21903597.8134  115104368.16147      2634.4064         47.5004
  24860309.7034  130641823.88946      -324.9374         38.4004
  23725964.4534  124680752.16247      3214.6174         44.5004
 11 10 21 21  0 15.0000000  0 11G13G32G17G20G04G07G23G31G10G30G02
  20153444.7424  105907001.51348       808.9614         49.8004
  24815792.9384  130408048.70847     -2985.8834         42.1004
  24592732.773   129235689.804 6     -3157.230          41.800
  22164084.6804  116473406.80947     -2738.6484         47.9004
  20891669.0084  109786396.10948       552.9534         49.7004
  23995831.664   126099054.002 7      3726.484          42.200
  20441551.6484  107421187.09548      -985.4534         51.7004
  25312117.922   133016019.065 6     -3262.676          40.200
  21903096.3594  115101733.90148      2634.1214         48.2004
  24860371.9144  130642149.14046      -325.6914         38.3004
  23725352.3284  124677537.68247      3214.3484         44.1004
 11 10 21 21  0 16.0000000  0 11G13G32G17G20G04G07G23G31G10G30G02
  20153290.5234  105906192.81748       808.4534         49.9004
  24816361.1644  130411034.42347     -2985.7504         42.7004
  24593332.641   129238847.032 7     -3157.168          42.000
  22164606.2664  116476145.47247     -2738.7114         47.9004
  20891563.9144  109785843.42948       552.4104         50.3004
  23995122.039   126095327.690 7      3726.344          42.400
  20441738.7504  107422172.76548      -985.8594         51.6004
  25312739.227   133019281.791 6     -3262.719          39.800
  21902595.5474  115099099.84848      2634.0004         48.6004
  24860433.7894  130642474.98946      -326.2114         39.0004
  23724740.4384  124674323.42147      3214.2344         44.2004
 11 10 21 21  0 17.0000000  0 11G13G32G17G20G04G07G23G31G10G30G02
  20153137.0394  105905384.66748       807.6954         50.0004
  24816929.1094  130414020.30447     -2986.1524         42.3004
  24593933.906   129242004.385 7     -3157.449          42.200
  22165127.1484  116478884.43648     -2739.2854         48.0004
  20891458.8204  109785291.46448       551.4614         50.5004
  23994413.047   126091601.515 7      3725.984          42.500
  20441926.3524  107423158.90448      -986.5164         51.6004
  25313360.461   133022544.823 6     -3263.367          40.000
  21902094.1804  115096466.08048      2633.4804         48.9004
  24860496.0394  130642801.52146      -327.0554         39.7004
  23724129.0084  124671109.50747      3213.6054         44.0004
 11 10 21 21  0 18.0000000  0 11G13G32G17G20G04G07G23G31G10G30G02
  20152983.2504  105904577.02848       807.0824         49.6004
  24817497.7734  130417006.13446     -2986.2074         41.8004
  24594534.492   129245161.800 7     -3157.723          42.100
  22165648.5394  116481623.65447     -2739.6454         47.9004
  20891354.0474  109784740.07948       550.7344         50.4004
  23993704.336   126087875.411 7      3725.770          42.700
  20442114.1254  107424145.48848      -987.1254         51.7004
  25313981.039   133025808.063 6     -3263.793          40.400
  21901593.1024  115093832.54448      2633.0554         49.0004
  24860558.3754  130643128.68046      -327.7704         39.7004
  23723517.6254  124667895.85547      3213.2114         44.4004
 11 10 21 21  0 19.0000000  0 11G13G32G17G20G04G07G23G31G10G30G02
  20152829.8914  105903769.94148       806.5704         49.3004
  24818065.4844  130419992.07346     -2986.4104         41.8004
  24595135.430   129248319.329 7     -3157.867          42.000
  22166169.4454  116484363.10848     -2739.8014         48.0004
  20891249.2664  109784189.33648       550.1524         50.4004
  23992995.430   126084149.413 7      3725.688          42.700
  20442302.1024  107425132.49848      -987.4844         51.6004
  25314602.445   133029071.530 6     -3263.844          39.900
  21901091.9064  115091199.26248      2632.8484         48.6004
  24860620.9534  130643456.47346      -328.4344         39.9004
  23722906.1414  124664682.46247      3212.9454         44.1004
 11 10 21 21  0 20.0000000  0 11G13G32G17G20G04G07G23G31G10G30G02
  20152676.1804  105902963.46648       806.3094         49.0004
  24818633.8054  130422978.16946     -2985.9774         41.9004
  24595735.539   129251476.997 6     -3157.582          41.700
  22166691.0474  116487102.92448     -2739.8444         48.0004
  20891144.3444  109783639.31548       549.7894         50.3004
  23992286.391   126080423.570 7      3725.879          42.400
  20442490.3284  107426120.03648      -987.6914         51.4004
  25315223.531   133032335.330 6     -3263.766          39.700
  21900590.9304  115088566.30748      2632.9224         48.8004
  24860683.8284  130643785.01546      -328.6134         40.3004
  23722294.7734  124661469.44447      3212.9384         43.8004
 11 10 21 21  0 21.0000000  0 11G13G32G17G20G04G07G23G31G10G30G02
  20152522.8054  105902157.49348       805.6804         48.8004
  24819201.8524  130425964.29047     -2986.1764         42.0004
  24596336.977   129254634.713 6     -3157.730          41.800
  22167212.2974  116489842.97247     -2740.2154         47.6004
  20891039.7814  109783089.92348       549.1134         50.5004
  23991577.797   126076697.815 7      3725.758          42.700
  20442678.0394  107427108.01148      -988.2034         51.5004
  25315844.492   133035599.379 6     -3264.281          40.000
  21900089.8914  115085933.57248      2632.6374         48.8004
  24860746.6644  130644114.18046      -329.5124         39.9004
  23721683.0864  124658256.67747      3212.6254         43.7004
 11 10 21 21  0 22.0000000  0 11G13G32G17G20G04G07G23G31G10G30G02
  20152369.5554  105901352.07948       804.9104         48.8004
  24819770.3674  130428950.50247     -2986.4454         42.3004
  24596937.445   129257792.552 6     -3158.023          41.300
  22167733.7194  116492583.28747     -2740.6844         47.6004
  20890935.4224  109782541.18648       548.2234         50.4004
  23990868.484   126072972.189 7      3725.355          42.800
  20442866.2584  107428096.43148      -988.9064         51.3004
  25316466.164   133038863.668 6     -3264.621          40.400
  21899588.7734  115083301.11748      2632.1174         48.5004
  24860808.6884  130644444.01046      -330.3094         39.9004
  23721071.5314  124655044.21347      3212.1454         43.9004
 11 10 21 21  0 23.0000000  0 11G13G32G17G20G04G07G23G31G10G30G02
  20152216.4064  105900547.10348       804.8404         49.3004
  24820338.3834  130431936.69047     -2986.1174         42.3004
  24597539.000   129260950.368 6     -3157.707          40.800
  22168255.5704  116495323.78047     -2740.5004         47.3004
  20890831.1094  109781993.02348       547.9304         50.0004
  23990159.734   126069246.571 7      3725.695          43.400
  20443054.4534  107429085.20248      -988.8754         51.7004
  25317087.219   133042128.107 6     -3264.437          40.500
  21899087.9694  115080668.81348      2632.3554         48.6004
  24860872.2424  130644774.36546      -330.5124         39.5004
  23720461.3364  124651831.94547      3212.2664         44.5004
 11 10 21 21  0 24.0000000  0 11G13G32G17G20G04G07G23G31G10G30G02
  20152063.2974  105899742.70148       804.1054         49.4004
  24820907.2734  130434922.99047     -2986.3954         42.5004
  24598139.984   129264108.300 6     -3157.984          41.100
  22168777.1334  116498064.57047     -2740.9654         47.0004
  20890726.9924  109781445.55048       547.1454         50.1004
  23989450.641   126065521.094 7      3725.410          43.400
  20443242.6644  107430074.47748      -989.5084         52.0004
  25317707.992   133045392.828 6     -3264.832          39.700
  21898587.1564  115078036.82048      2631.8524         48.5004
  24860934.7034  130645105.40846      -331.2664         39.6004
  23719850.1564  124648620.00247      3211.8594         44.5004
 11 10 21 21  0 25.0000000  0 11G13G32G17G20G04G07G23G31G10G30G02
  20151910.3204  105898938.88048       803.6374         49.6004
  24821475.6334  130437909.38347     -2986.4264         42.6004
  24598741.000   129267266.352 6     -3158.051          40.700
  22169298.6414  116500805.65947     -2741.2464         47.3004
  20890623.0004  109780898.76048       546.4734         50.0004
  23988741.578   126061795.746 7      3725.387          43.700
  20443430.5084  107431064.23248      -989.9654         51.9004
  25318329.508   133048657.864 6     -3265.078          40.200
  21898086.3834  115075405.12448      2631.5824         48.6004
  24860997.9614  130645437.20146      -331.9694         40.1004
  23719238.6644  124645408.40547      3211.5004         44.7004
 11 10 21 21  0 26.0000000  0 11G13G32G17G20G04G07G23G31G10G30G02
  20151757.5084  105898135.52648       803.1564         49.5004
  24822043.9694  130440895.76947     -2986.5044         42.6004
  24599341.672   129270424.414 6     -3157.922          40.400
  22169820.5394  116503546.93847     -2741.3244         47.5004
  20890518.7664  109780352.54648       545.8834         50.3004
  23988032.391   126058070.470 7      3725.359          43.800
  20443619.5394  107432054.37048      -990.2664         52.0004
  25318950.953   133051923.088 6     -3265.270          40.300
  21897585.4454  115072773.61248      2631.4454         48.8004
  24861061.1484  130645769.51546      -332.4304         40.0004
  23718627.5164  124642197.02947      3211.3554         44.7004
 11 10 21 21  0 27.0000000  0 11G13G32G17G20G04G07G23G31G10G30G02
  20151604.6804  105897332.89948       802.3014         49.1004
  24822612.2814  130443882.41847     -2986.7814         43.1004
  24599942.977   129273582.764 6     -3158.395          40.400
  22170342.1024  116506288.67647     -2741.8914         47.5004
  20890414.8054  109779807.14048       545.0704         49.9004
  23987323.797   126054345.442 7      3724.957          42.600
  20443808.2194  107433045.14648      -991.0784         52.0004
  25319572.398   133055188.669 6     -3265.820          40.000
  21897085.2734  115070142.53148      2630.9384         48.5004
  24861124.1254  130646102.69946      -333.5744         40.2004
  23718016.9614  124638986.09847      3210.8014         45.1004
 11 10 21 21  0 28.0000000  0 11G13G32G17G20G04G07G23G31G10G30G02
  20151451.8754  105896530.59448       802.1564         49.4004
  24823179.9384  130446868.93047     -2986.4454         42.8004
  24600543.102   129276740.993 6     -3158.156          40.600
  22170864.1484  116509030.47947     -2741.7974         47.3004
  20890311.3284  109779262.19848       544.7814         50.1004
  23986614.953   126050620.335 7      3725.211          43.000
  20443996.5314  107434036.14848      -991.0704         52.0004
  25320193.703   133058454.389 6     -3265.648          40.100
  21896584.0944  115067511.50648      2631.1024         48.7004
  24861187.8914  130646436.33646      -333.7814         39.8004
  23717405.7664  124635775.26947      3210.9224         44.9004
 11 10 21 21  0 29.0000000  0 11G13G32G17G20G04G07G23G31G10G30G02
  20151299.3364  105895728.82948       801.3094         49.1004
  24823748.2344  130449855.49947     -2986.7974         43.2004
  24601144.219   129279899.239 6     -3158.367          40.600
  22171385.8834  116511772.50347     -2742.4024         47.2004
  20890208.3674  109778717.91148       543.7854         50.3004
  23985906.422   126046895.315 7      3724.742          43.300
  20444185.1484  107435027.58748      -991.8594         51.4004
  25320815.336   133061720.283 6     -3266.074          39.900
  21896083.4774  115064880.71148      2630.4884         48.9004
  24861250.9224  130646770.60546      -334.8484         39.4004
  23716795.3834  124632564.71847      3210.2464         44.8004
 11 10 21 21  0 30.0000000  0 11G13G32G17G20G04G07G23G31G10G30G02
  20151147.2114  105894927.79948       800.8674         49.3004
  24824316.3134  130452842.35947     -2986.8984         42.7004
  24601745.148   129283057.840 6     -3158.695          40.900
  22171907.7424  116514515.02347     -2742.5984         47.2004
  20890104.6484  109778174.47448       543.1604         50.1004
  23985197.617   126043170.612 7      3724.652          43.800
  20444373.7814  107436019.70548      -992.3094         51.1004
  25321436.742   133064986.686 6     -3266.555          40.200
  21895582.8984  115062250.40448      2630.1914         48.8004
  24861315.1334  130647105.73446      -335.4614         39.7004
  23716183.6174  124629354.67847      3209.9384         44.7004
 11 10 21 21  0 31.0000000  0 11G13G32G17G20G04G07G23G31G10G30G02
  20150994.7034  105894127.26048       800.4884         49.5004
  24824884.9774  130455829.16046     -2986.4734         41.6004
  24602346.867   129286216.416 6     -3158.418          40.900
  22172429.3754  116517257.72847     -2742.6374         47.5004
  20890001.4454  109777631.63448       542.6684         50.0004
  23984488.461   126039445.936 7      3724.836          43.900
  20444562.5944  107437012.19748      -992.5984         51.1004
  25322057.828   133068253.219 6     -3266.473          40.400
  21895082.3914  115059620.25948      2630.1724         48.3004
  24861379.0084  130647441.42546      -335.8444         39.0004
  23715572.7274  124626144.81947      3209.9414         45.0004
 11 10 21 21  0 32.0000000  0 11G13G32G17G20G04G07G23G31G10G30G02
  20150842.6024  105893327.31048       799.6524         49.6004
  24825453.9064  130458816.16446     -2987.0274         41.7004
  24602948.219   129289375.128 6     -3158.691          40.000
  22172951.6644  116520000.75747     -2743.1604         47.3004
  20889898.6644  109777089.50948       541.7304         50.2004
  23983779.891   126035721.428 7      3724.488          43.700
  20444751.7344  107438005.18248      -993.2304         51.1004
  25322679.344   133071520.083 6     -3266.969          40.300
  21894582.2424  115056990.44548      2629.6604         48.3004
  24861442.6884  130647777.85446      -336.6604         39.0004
  23714962.5864  124622935.32747      3209.3954         44.6004
 11 10 21 21  0 33.0000000  0 11G13G32G17G20G04G07G23G31G10G30G02
  20150690.2584  105892527.82648       799.2584         49.6004
  24826022.4064  130461803.13446     -2986.9494         41.8004
  24603548.570   129292533.904 6     -3158.727          40.400
  22173473.5474  116522744.00047     -2743.3014         47.3004
  20889795.4144  109776547.94048       541.4104         50.0004
  23983071.320   126031996.948 7      3724.617          43.900
  20444940.6724  107438998.55848      -993.5744         51.2004
  25323301.555   133074787.112 6     -3267.043          40.100
  21894081.7734  115054360.80948      2629.5904         48.2004
  24861506.8594  130648114.85646      -337.3444         39.2004
  23714352.0234  124619726.06147      3209.2074         44.5004
 11 10 21 21  0 34.0000000  0 11G13G32G17G20G04G07G23G31G10G30G02
  20150538.2734  105891728.92548       798.5354         49.6004
  24826590.6954  130464790.22846     -2987.1724         41.7004
  24604149.711   129295692.757 6     -3159.027          40.400
  22173996.0234  116525487.53047     -2743.7734         47.9004
  20889692.2424  109776007.07448       540.4884         50.0004
  23982362.664   126028272.635 7      3724.156          44.400
  20445130.0084  107439992.44148      -994.1994         51.0004
  25323923.492   133078054.445 6     -3267.602          40.300
  21893581.2894  115051731.47448      2629.0434         48.1004
  24861571.2734  130648452.54846      -338.0514         38.8004
  23713740.6174  124616517.11647      3208.6524         44.5004
 11 10 21 21  0 35.0000000  0 11G13G32G17G20G04G07G23G31G10G30G02
  20150386.5944  105890930.49848       797.7934         49.6004
  24827159.8524  130467777.28646     -2987.5044         41.7004
  24604751.086   129298851.650 6     -3159.301          40.100
  22174517.7584  116528231.24148     -2744.2114         48.0004
  20889589.2584  109775466.79248       539.6414         50.1004
  23981653.531   126024548.327 7      3723.941          44.100
  20445319.0864  107440986.67248      -994.8444         50.9004
  25324545.469   133081321.941 6     -3267.934          40.200
  21893081.3594  115049102.31448      2628.7114         48.5004
  24861635.7424  130648790.82446      -339.0314         39.3004
  23713130.1414  124613308.38747      3208.2234         43.9004
 11 10 21 21  0 36.0000000  0 11G13G32G17G20G04G07G23G31G10G30G02
  20150234.6414  105890132.71248       797.3244         49.7004
  24827728.2274  130470764.55647     -2987.4804         42.2004
  24605352.063   129302010.697 6     -3159.250          40.800
  22175039.8594  116530975.32748     -2744.3674         48.0004
  20889486.3914  109774927.28748       538.9964         50.2004
  23980945.180   126020824.249 7      3723.855          44.000
  20445508.5634  107441981.47048      -995.2704         50.8004
  25325166.555   133084589.809 6     -3268.145          40.400
  21892580.7114  115046473.54248      2628.4264         48.3004
  24861700.4534  130649129.85446      -339.5124         39.9004
  23712519.2734  124610100.04547      3207.9614         43.9004
 11 10 21 21  0 37.0000000  0 11G13G32G17G20G04G07G23G31G10G30G02
  20150083.1884  105889335.43548       797.0474         50.1004
  24828296.2734  130473751.86247     -2987.4304         42.7004
  24605953.516   129305169.849 6     -3159.191          41.300
  22175561.9304  116533719.66348     -2744.4804         48.3004
  20889383.9144  109774388.38648       538.4884         50.2004
  23980236.828   126017100.258 7      3723.957          44.300
  20445697.7584  107442976.69548      -995.4224         50.9004
  25325789.125   133087857.911 6     -3268.195          40.400
  21892080.6884  115043844.98547      2628.4534         47.9004
  24861765.2664  130649469.51146      -340.0314         39.6004
  23711909.5704  124606892.00247      3207.8054         44.5004
 11 10 21 21  0 38.0000000  0 11G13G32G17G20G04G07G23G31G10G30G02
  20149931.6644  105888538.69848       796.5234         49.8004
  24828864.9064  130476739.20147     -2987.2074         43.0004
  24606554.328   129308329.061 6     -3159.238          41.100
  22176083.9064  116536464.25948     -2744.7584         48.5004
  20889281.7584  109773850.14448       537.9694         50.0004
  23979528.016   126013376.332 7      3723.965          43.900
  20445887.3674  107443972.36248      -995.8524         51.0004
  25326410.641   133091126.244 6     -3268.426          40.100
  21891580.4304  115041216.69047      2628.2384         47.7004
  24861829.3594  130649809.85346      -340.6524         38.8004
  23711298.9844  124603684.20647      3207.7344         44.9004
 11 10 21 21  0 39.0000000  0 11G13G32G17G20G04G07G23G31G10G30G02
  20149780.0164  105887742.45948       796.0204         49.9004
  24829433.1174  130479726.60347     -2987.4414         42.9004
  24607155.688   129311488.318 6     -3159.270          41.300
  22176606.0704  116539209.08748     -2745.0124         48.1004
  20889179.4144  109773312.49848       537.3524         50.2004
  23978819.336   126009652.525 7      3723.781          43.700
  20446077.1174  107444968.45348      -996.3124         51.0004
  25327032.984   133094394.785 6     -3268.547          39.900
  21891080.6804  115038588.61348      2628.0124         48.1004
  24861893.8364  130650150.77646      -341.1484         38.7004
  23710688.5394  124600476.71447      3207.4064         45.0004
 11 10 21 21  0 40.0000000  0 11G13G32G17G20G04G07G23G31G10G30G02
  20149628.3594  105886946.79048       795.5124         49.5004
  24830001.8674  130482714.04947     -2987.3874         42.6004
  24607756.828   129314647.718 6     -3159.473          41.400
  22177128.7344  116541954.17747     -2745.1294         47.8004
  20889077.3594  109772775.53548       536.6454         50.2004
  23978110.602   126005928.819 7      3723.750          43.600
  20446266.2814  107445965.01948      -996.7384         51.1004
  25327655.453   133097663.633 6     -3268.949          39.900
  21890580.5084  115035960.81748      2627.7894         48.0004
  24861959.6724  130650492.36546      -341.8204         39.0004
  23710078.3754  124597269.49647      3207.0664         44.9004
 11 10 21 21  0 41.0000000  0 11G13G32G17G20G04G07G23G31G10G30G02
  20149477.1414  105886151.75048       794.5904         49.0004
  24830570.4064  130485701.68147     -2987.7584         43.0004
  24608358.031   129317807.246 6     -3159.711          41.700
  22177651.1024  116544699.63348     -2745.6914         48.1004
  20888975.1414  109772239.27948       535.8524         50.3004
  23977402.430   126002205.293 7      3723.391          43.700
  20446456.4384  107446962.09948      -997.4414         51.4004
  25328276.539   133100932.769 6     -3269.430          40.500
  21890080.2584  115033333.35648      2627.1914         48.0004
  24862024.6414  130650834.69446      -342.7234         39.2004
  23709467.1334  124594062.65247      3206.5824         44.6004
 11 10 21 21  0 42.0000000  0 11G13G32G17G20G04G07G23G31G10G30G02
  20149325.8284  105885357.16048       794.3674         49.0004
  24831138.5394  130488689.29847     -2987.5704         43.2004
  24608959.148   129320966.764 6     -3159.551          41.800
  22178173.8284  116547445.28048     -2745.7544         48.3004
  20888873.2194  109771703.62048       535.3244         50.2004
  23976693.148   125998481.815 7      3723.477          44.300
  20446646.1804  107447959.56548      -997.6914         51.4004
  25328899.172   133104202.104 6     -3269.480          39.500
  21889580.4844  115030706.07848      2627.1914         48.0004
  24862090.0314  130651177.63846      -343.2584         39.2004
  23708857.5634  124590856.04247      3206.3954         44.7004
 11 10 21 21  0 43.0000000  0 11G13G32G17G20G04G07G23G31G10G30G02
  20149174.9384  105884563.13748       793.4414         49.6004
  24831707.7114  130491677.02047     -2988.0164         43.0004
  24609560.984   129324126.416 6     -3159.973          41.300
  22178696.0084  116550191.18647     -2746.2774         47.6004
  20888771.1884  109771168.63048       534.3404         50.4004
  23975984.336   125994758.467 7      3722.992          43.500
  20446835.6884  107448957.49448      -998.4734         51.1004
  25329521.242   133107471.696 6     -3269.996          40.300
  21889080.4694  115028079.06647      2626.6484         47.7004
  24862155.8134  130651521.23146      -344.2974         38.9004
  23708247.5314  124587649.73047      3205.7664         44.1004
 11 10 21 21  0 44.0000000  0 11G13G32G17G20G04G07G23G31G10G30G02
  20149023.6564  105883769.56748       793.2704         49.6004
  24832275.5314  130494664.71847     -2987.7734         43.0004
  24610161.672   129327286.052 7     -3159.699          42.000
  22179219.0084  116552937.28747     -2746.1874         47.9004
  20888669.9774  109770634.23348       534.1294         50.4004
  23975276.227   125991035.138 7      3723.328          42.300
  20447026.0084  107449955.78348      -998.4574         51.1004
  25330143.523   133110741.448 6     -3269.836          39.400
  21888580.7034  115025452.24347      2626.6644         47.0004
  24862220.7114  130651865.35646      -344.5354         38.4004
  23707637.3204  124584443.63047      3206.0234         44.1004
 11 10 21 21  0 45.0000000  0 11G13G32G17G20G04G07G23G31G10G30G02
  20148872.9224  105882976.70348       792.5514         49.5004
  24832844.0864  130497652.66147     -2988.0354         42.6004
  24610762.836   129330445.943 6     -3159.980          41.700
  22179741.1564  116555683.83147     -2746.7344         47.6004
  20888568.1094  109770100.66248       533.1844         50.2004
  23974567.898   125987312.060 6      3722.910          41.800
  20447216.1094  107450954.69148      -999.1484         51.4004
  25330765.352   133114011.622 6     -3270.355          39.900
  21888080.8524  115022825.82747      2626.2624         46.3004
  24862286.4924  130652210.35846      -345.3404         38.2004
  23707027.6644  124581237.95947      3205.5124         43.7004
 11 10 21 21  0 46.0000000  0 11G13G32G17G20G04G07G23G31G10G30G02
  20148721.9144  105882184.36048       791.9804         49.9004
  24833412.8204  130500640.61547     -2988.1214         42.5004
  24611364.797   129333605.886 7     -3160.168          42.000
  22180264.5234  116558430.60547     -2746.9774         47.8004
  20888466.7034  109769567.69348       532.5234         50.3004
  23973859.047   125983589.069 7      3722.871          42.200
  20447405.9224  107451954.03748      -999.6914         51.4004
  25331388.211   133117282.019 6     -3270.684          40.300
  21887580.8134  115020199.65447      2626.0394         46.9004
  24862351.4454  130652555.96446      -345.9924         38.4004
  23706417.4454  124578032.57547      3205.2504         44.1004
 11 10 21 21  0 47.0000000  0 11G13G32G17G20G04G07G23G31G10G30G02
  20148571.4844  105881392.49748       791.9384         50.0004
  24833981.2814  130503628.59947     -2987.6454         43.2004
  24611965.563   129336765.857 6     -3159.727          41.700
  22180786.9224  116561177.56147     -2746.7194         47.6004
  20888365.6414  109769035.31848       532.3874         50.5004
  23973150.820   125979866.148 7      3723.215          42.800
  20447596.2584  107452953.73848      -999.5744         51.4004
  25332009.859   133120552.589 6     -3270.234          40.400
  21887081.0784  115017573.68347      2626.2074         47.5004
  24862418.1094  130652902.14246      -346.2344         38.4004
  23705808.0784  124574827.41047      3205.3324         44.3004
 11 10 21 21  0 48.0000000  0 11G13G32G17G20G04G07G23G31G10G30G02
  20148420.9774  105880601.24948       790.8954         49.7004
  24834550.3984  130506616.73247     -2988.2274         43.4004
  24612567.141   129339925.949 6     -3160.125          41.200
  22181309.8134  116563924.89148     -2747.4654         48.0004
  20888263.9694  109768503.66348       531.2974         50.4004
  23972442.469   125976143.411 7      3722.625          42.900
  20447786.5314  107453954.00148     -1000.5164         51.1004
  25332632.867   133123823.470 6     -3270.992          40.500
  21886581.7034  115014948.04547      2625.4654         47.9004
  24862484.0234  130653249.07946      -347.3554         38.9004
  23705197.9774  124571622.62947      3204.6174         44.0004
 11 10 21 21  0 49.0000000  0 11G13G32G17G20G04G07G23G31G10G30G02
  20148270.6954  105879810.51348       790.2624         49.9004
  24835118.4144  130509604.92447     -2988.2734         43.1004
  24613168.867   129343086.163 6     -3160.316          41.100
  22181832.5784  116566672.46347     -2747.8524         47.6004
  20888162.7814  109767972.68048       530.4774         50.0004
  23971734.523   125972420.736 7      3722.527          43.000
  20447977.0474  107454954.68548     -1001.1414         51.0004
  25333255.367   133127094.627 6     -3271.332          41.100
  21886082.2034  115012322.66948      2625.0514         48.1004
  24862550.6564  130653596.60846      -348.0084         38.6004
  23704588.1804  124568418.11947      3204.2154         44.1004
 11 10 21 21  0 50.0000000  0 11G13G32G17G20G04G07G23G31G10G30G02
  20148120.2194  105879020.31448       789.8244         49.7004
  24835687.4534  130512593.15647     -2988.3554         42.7004
  24613769.695   129346246.434 6     -3160.449          41.200
  22182355.3594  116569420.25547     -2747.9144         47.8004
  20888062.4614  109767442.31148       530.0004         49.8004
  23971025.820   125968698.186 7      3722.359          43.200
  20448167.7584  107455955.79648     -1001.4104         51.4004
  25333878.023   133130366.006 6     -3271.738          40.400
  21885582.6024  115009697.49748      2624.9654         48.2004
  24862616.8754  130653944.80346      -348.6094         38.3004
  23703978.2034  124565213.86847      3203.9184         44.1004
 11 10 21 21  0 51.0000000  0 11G13G32G17G20G04G07G23G31G10G30G02
  20147969.6644  105878230.68148       789.2234         49.2004
  24836255.1254  130515581.50847     -2988.4024         42.9004
  24614371.375   129349406.813 6     -3160.539          41.700
  22182878.3444  116572168.37247     -2748.3754         47.3004
  20887961.3524  109766912.61248       529.3324         49.4004
  23970317.188   125964975.763 7      3722.215          42.800
  20448358.2974  107456957.39848     -1001.9304         51.1004
  25334500.641   133133637.656 6     -3271.832          40.200
  21885083.1884  115007072.63947      2624.5984         47.6004
  24862683.1414  130654293.69946      -349.3124         38.7004
  23703368.5234  124562009.94847      3203.7544         44.5004
 11 10 21 21  0 52.0000000  0 11G13G32G17G20G04G07G23G31G10G30G02
  20147819.5164  105877441.55748       788.8134         49.2004
  24836824.0234  130518569.88447     -2988.4574         42.6004
  24614972.492   129352567.254 6     -3160.602          41.400
  22183401.4844  116574916.73247     -2748.5004         47.0004
  20887860.6094  109766383.54948       528.7344         49.3004
  23969608.758   125961253.431 7      3722.094          43.000
  20448548.8674  107457959.42048     -1002.2814         51.1004
  25335123.008   133136909.533 6     -3272.059          40.000
  21884583.3364  115004448.01548      2624.4694         48.2004
  24862749.4384  130654643.19746      -349.8244         38.5004
  23702759.0234  124558806.31447      3203.5474         45.0004
 11 10 21 21  0 53.0000000  0 11G13G32G17G20G04G07G23G31G10G30G02
  20147669.3834  105876653.03148       788.1604         49.2004
  24837392.7504  130521558.41047     -2988.5984         42.7004
  24615573.656   129355727.789 6     -3160.711          41.000
  22183924.0234  116577665.38447     -2748.9224         47.5004
  20887760.2274  109765855.18848       527.9654         49.5004
  23968900.758   125957531.220 7      3722.023          43.200
  20448739.7814  107458961.93648     -1002.8364         51.3004
  25335745.828   133140181.655 6     -3272.270          40.000
  21884084.4694  115001823.67348      2624.1334         48.4004
  24862816.4534  130654993.41046      -350.6604         38.5004
  23702149.4844  124555602.99847      3203.1604         45.0004
 11 10 21 21  0 54.0000000  0 11G13G32G17G20G04G07G23G31G10G30G02
  20147519.6174  105875865.09948       787.5904         49.5004
  24837961.8984  130524547.03147     -2988.7344         42.6004
  24616175.500   129358888.509 6     -3160.777          40.600
  22184447.6724  116580414.36047     -2749.2344         47.8004
  20887659.5004  109765327.52648       527.2854         49.6004
  23968192.063   125953809.210 7      3721.883          42.600
  20448930.6254  107459964.95648     -1003.3014         51.4004
  25336368.266   133143454.141 6     -3272.512          40.500
  21883584.5474  114999199.68148      2623.7624         48.8004
  24862882.9694  130655344.31946      -351.2624         37.8004
  23701539.4614  124552400.05047      3202.8594         45.1004
 11 10 21 21  0 55.0000000  0 11G13G32G17G20G04G07G23G31G10G30G02
  20147369.7114  105875077.64248       787.0784         49.2004
  24838530.3674  130527535.68047     -2988.7664         42.2004
  24616776.820   129362049.264 6     -3161.031          40.200
  22184970.8594  116583163.55547     -2749.4534         47.6004
  20887559.8984  109764800.47148       526.5234         49.7004
  23967483.750   125950087.265 7      3721.699          42.800
  20449121.6094  107460968.38348     -1003.7464         51.3004
  25336991.680   133146726.823 6     -3272.926          40.500
  21883085.6094  114996575.87248      2623.5354         48.7004
  24862949.7734  130655695.83446      -351.9304         37.5004
  23700930.1254  124549197.34747      3202.4414         45.1004
 11 10 21 21  0 56.0000000  0 11G13G32G17G20G04G07G23G31G10G30G02
  20147219.5784  105874290.66448       786.7424         49.2004
  24839098.7734  130530524.30447     -2988.4884         42.1004
  24617378.219   129365209.988 6     -3160.738          40.800
  22185494.0944  116585912.94248     -2749.4374         48.0004
  20887459.2734  109764273.96248       526.2974         49.5004
  23966775.820   125946365.324 7      3721.949          43.100
  20449312.4384  107461972.17148     -1003.9374         51.2004
  25337614.070   133149999.651 6     -3272.980          40.600
  21882586.2504  114993952.25048      2623.5274         49.1004
  24863016.5704  130656047.90346      -352.2584         38.0004
  23700321.4384  124545994.84947      3202.3714         45.3004
 11 10 21 21  0 57.0000000  0 11G13G32G17G20G04G07G23G31G10G30G02
  20147070.2974  105873504.16948       786.3014         49.0004
  24839667.9534  130533512.96946     -2988.6094         41.9004
  24617980.070   129368370.780 6     -3160.824          41.000
  22186016.7424  116588662.54148     -2749.6764         48.1004
  20887359.1254  109763748.08248       525.6094         49.9004
  23966067.281   125942643.466 7      3721.965          42.600
  20449503.8524  107462976.36848     -1004.3324         51.4004
  25338237.289   133153272.684 6     -3273.285          40.000
  21882087.0474  114991328.86448      2623.2934         49.2004
  24863083.4534  130656400.63846      -353.1764         37.7004
  23699711.5164  124542792.61347      3202.0984         45.6004
 11 10 21 21  0 58.0000000  0 11G13G32G17G20G04G07G23G31G10G30G02
  20146921.0394  105872718.34348       785.5904         49.5004
  24840236.3594  130536501.84247     -2988.9024         42.1004
  24618581.328   129371531.769 6     -3161.066          41.600
  22186540.0704  116591412.56147     -2750.1524         47.9004
  20887259.1334  109763222.98548       524.7934         50.2004
  23965359.344   125938921.850 7      3721.629          42.800
  20449694.8524  107463981.16648     -1004.9884         51.2004
  25338860.680   133156546.079 6     -3273.543          40.500
  21881587.9384  114988705.80748      2623.0004         48.9004
  24863150.9614  130656754.09346      -353.7664         38.1004
  23699102.2344  124539590.79347      3201.6644         44.9004
 11 10 21 21  0 59.0000000  0 11G13G32G17G20G04G07G23G31G10G30G02
  20146771.1724  105871933.00048       784.9924         49.8004
  24840805.5474  130539490.69047     -2988.8794         42.2004
  24619182.914   129374692.768 6     -3161.145          41.300
  22187063.6724  116594162.77447     -2750.3594         47.8004
  20887159.5394  109762698.48648       524.1524         49.8004
  23964650.930   125935200.257 7      3721.516          42.900
  20449886.3364  107464986.32048     -1005.3554         51.4004
  25339482.922   133159819.704 6     -3273.703          40.800
  21881088.6334  114986082.99448      2622.6644         48.6004
  24863217.8674  130657108.16946      -354.3554         37.8004
  23698493.1334  124536389.17047      3201.4064         45.0004
 11 10 21 21  1  0.0000000  0 11G13G32G17G20G04G07G23G31G10G30G02
  20146621.8594  105871148.23548       784.2234         49.5004
  24841374.6954  130542479.67847     -2989.2974         42.3004
  24619784.633   129377853.909 6     -3161.434          41.300
  22187587.0004  116596913.31047     -2750.9024         47.7004
  20887059.8284  109762174.68348       523.2074         49.9004
  23963942.852   125931478.833 7      3721.090          43.400
  20450077.4774  107465992.00148     -1006.1844         51.7004
  25340105.680   133163093.574 6     -3274.309          40.500
  21880589.4384  114983460.47848      2622.1174         48.8004
  24863285.7504  130657462.95046      -355.4454         38.6004
  23697883.9384  124533187.92047      3200.8524         44.7004
 11 10 21 21  1  1.0000000  0 11G13G32G17G20G04G07G23G31G10G30G02
  20146472.8834  105870363.89448       783.9534         49.5004
  24841942.8984  130545468.62747     -2989.0744         42.2004
  24620386.234   129381014.996 6     -3161.176          41.300
  22188110.6954  116599663.97647     -2750.9024         47.6004
  20886959.9924  109761651.42348       522.8874         50.2004
  23963234.617   125927757.389 7      3721.375          42.800
  20450268.8524  107466998.00848     -1006.3594         51.5004
  25340728.938   133166367.596 6     -3274.238          40.700
  21880090.7664  114980838.10148      2622.0904         48.7004
  24863353.9224  130657818.26246      -355.6454         39.2004
  23697274.2504  124529986.83847      3200.8444         44.1004
 11 10 21 21  1  2.0000000  0 11G13G32G17G20G04G07G23G31G10G30G02
  20146323.7894  105869580.27748       783.4144         49.8004
  24842512.0234  130548457.84647     -2989.2344         42.6004
  24620987.398   129384176.349 6     -3161.379          41.100
  22188634.3674  116602415.11347     -2751.2544         47.5004
  20886860.8984  109761129.00648       522.0744         50.4004
  23962526.727   125924036.283 7      3721.074          43.000
  20450460.2814  107468004.65048     -1006.7974         51.6004
  25341351.742   133169642.085 6     -3274.625          40.700
  21879591.4384  114978216.17948      2621.7624         48.2004
  24863421.5474  130658174.45346      -356.6054         39.5004
  23696665.2274  124526786.24047      3200.5124         43.7004
 11 10 21 21  1  3.0000000  0 11G13G32G17G20G04G07G23G31G10G30G02
  20146174.4924  105868797.15248       782.7194         49.8004
  24843080.8914  130551447.05347     -2989.4144         43.0004
  24621589.203   129387337.760 6     -3161.660          41.300
  22189158.4534  116605166.43047     -2751.5084         47.2004
  20886761.6334  109760607.17248       521.4064         50.7004
  23961818.602   125920315.200 7      3720.965          43.200
  20450652.1334  107469011.67248     -1007.3754         51.9004
  25341974.844   133172916.704 6     -3274.844          40.200
  21879092.6334  114975594.43948      2621.5274         48.2004
  24863488.9774  130658531.15146      -356.9924         39.0004
  23696056.8984  124523585.86347      3200.0434         44.1004
 11 10 21 21  1  4.0000000  0 11G13G32G17G20G04G07G23G31G10G30G02
  20146025.9064  105868014.48248       782.3164         49.8004
  24843650.2344  130554436.23947     -2989.2814         42.6004
  24622191.023   129390499.162 6     -3161.566          41.800
  22189682.1414  116607917.93847     -2751.7584         47.6004
  20886662.5164  109760085.89748       520.8204         50.3004
  23961110.445   125916594.131 7      3721.020          43.100
  20450843.9384  107470019.07748     -1007.7544         51.5004
  25342598.070   133176191.516 6     -3275.027          40.500
  21878593.9694  114972972.88047      2621.3094         47.4004
  24863557.1334  130658888.48746      -357.6214         38.8004
  23695447.5634  124520385.71147      3199.9454         43.9004
 11 10 21 21  1  5.0000000  0 11G13G32G17G20G04G07G23G31G10G30G02
  20145876.4534  105867232.42448       781.9184         49.6004
  24844218.5704  130557425.56747     -2989.3094         42.8004
  24622792.766   129393660.684 6     -3161.457          41.800
  22190205.2194  116610669.78647     -2751.8914         47.8004
  20886563.7274  109759565.36848       520.3244         50.3004
  23960402.391   125912873.247 7      3721.070          43.400
  20451035.7584  107471026.98748     -1008.0004         51.2004
  25343221.234   133179466.659 6     -3275.320          40.400
  21878095.3364  114970351.64847      2621.2274         47.3004
  24863624.4774  130659246.53346      -358.2624         39.0004
  23694838.7424  124517185.91347      3199.8244         43.7004
 11 10 21 21  1  6.0000000  0 11G13G32G17G20G04G07G23G31G10G30G02
  20145728.4384  105866451.02648       781.4534         50.0004
  24844787.4844  130560415.08547     -2989.2074         43.0004
  24623394.539   129396822.452 7     -3161.477          42.100
  22190729.4384  116613422.01047     -2752.1294         47.7004
  20886464.4144  109759045.60848       519.6994         50.0004
  23959694.117   125909152.619 7      3720.832          43.700
  20451227.5784  107472035.48148     -1008.4884         51.3004
  25343844.883   133182742.145 6     -3275.285          40.400
  21877596.4144  114967730.81847      2620.9574         47.6004
  24863692.7974  130659605.34546      -358.7974         39.2004
  23694229.6484  124513986.53847      3199.4774         44.1004
 11 10 21 21  1  7.0000000  0 11G13G32G17G20G04G07G23G31G10G30G02
  20145579.5474  105865670.10048       780.5314         49.6004
  24845356.4064  130563404.60147     -2989.6254         42.9004
  24623996.047   129399984.205 7     -3161.930          42.000
  22191252.7734  116616174.41848     -2752.6374         48.0004
  20886365.7664  109758526.41248       518.8014         50.4004
  23958986.539   125905431.989 7      3720.457          43.900
  20451419.5554  107473044.35348     -1009.2544         51.3004
  25344467.891   133186017.837 6     -3275.852          40.100
  21877097.7734  114965110.16247      2620.3754         47.8004
  24863761.9924  130659964.77146      -360.0084         39.5004
  23693620.8204  124510787.38147      3198.8134         43.2004
 11 10 21 21  1  8.0000000  0 11G13G32G17G20G04G07G23G31G10G30G02
  20145430.6954  105864889.65948       779.8914         49.4004
  24845925.1024  130566394.13847     -2989.8404         42.1004
  24624598.148   129403145.985 7     -3162.117          42.100
  22191776.7344  116618927.01548     -2752.8914         48.1004
  20886266.8674  109758007.83348       517.9884         50.0004
  23958278.523   125901711.447 7      3720.176          43.900
  20451611.2344  107474053.60448     -1009.6874         51.0004
  25345091.141   133189293.691 6     -3276.230          40.000
  21876599.0634  114962489.69948      2620.0984         48.2004
  24863830.7664  130660324.78546      -360.5474         40.1004
  23693012.6724  124507588.46947      3198.5634         43.5004
 11 10 21 21  1  9.0000000  0 11G13G32G17G20G04G07G23G31G10G30G02
  20145282.6564  105864109.75948       779.6644         49.1004
  24846494.1094  130569383.71646     -2989.5354         41.7004
  24625200.000   129406307.839 7     -3161.895          42.500
  22192300.3204  116621679.91348     -2752.9734         48.2004
  20886168.3594  109757489.89548       517.7734         50.0004
  23957570.406   125897990.983 7      3720.445          42.700
  20451803.8834  107475063.30948     -1009.8484         51.0004
  25345715.016   133192569.805 6     -3276.195          39.900
  21876100.3524  114959869.51047      2620.1374         47.5004
  24863898.9384  130660685.45346      -360.9614         39.4004
  23692403.6024  124504389.84247      3198.5554         43.8004
 11 10 21 21  1 10.0000000  0 11G13G32G17G20G04G07G23G31G10G30G02
  20145134.3444  105863330.41248       778.9454         49.2004
  24847062.8284  130572373.36946     -2989.8674         41.8004
  24625801.313   129409469.785 7     -3162.172          42.300
  22192824.1804  116624433.06648     -2753.4374         48.2004
  20886069.8754  109756972.62748       516.8954         49.6004
  23956862.781   125894270.654 7      3720.063          42.900
  20451995.9454  107476073.49048     -1010.5624         51.1004
  25346338.148   133195846.158 6     -3276.660          39.800
  21875602.2504  114957249.58747      2619.6054         47.3004
  24863968.1174  130661046.75846      -361.8554         39.4004
  23691794.5944  124501191.51447      3198.0124         43.6004
 11 10 21 21  1 11.0000000  0 11G13G32G17G20G04G07G23G31G10G30G02
  20144985.8984  105862551.66148       778.5084         49.1004
  24847631.4224  130575363.17346     -2989.7934         41.9004
  24626403.438   129412631.857 6     -3162.062          41.100
  22193348.4694  116627186.53148     -2753.6024         48.2004
  20885971.6804  109756456.09148       516.2384         49.7004
  23956154.422   125890550.470 7      3720.145          42.800
  20452188.1804  107477084.15048     -1010.7704         50.9004
  25346961.766   133199122.814 6     -3276.715          40.300
  21875103.2814  114954629.98647      2619.5434         47.2004
  24864036.3754  130661408.77346      -362.3094         39.6004
  23691186.8204  124497993.56047      3197.8484         43.2004
 11 10 21 21  1 12.0000000  0 11G13G32G17G20G04G07G23G31G10G30G02
  20144838.1954  105861773.45348       777.8404         49.4004
  24848201.1024  130578353.08646     -2990.0624         41.9004
  24627004.688   129415794.038 6     -3162.277          40.900
  22193871.8134  116629940.27548     -2753.9774         48.4004
  20885873.2814  109755940.19448       515.4964         50.0004
  23955446.414   125886830.430 7      3719.902          43.000
  20452380.6724  107478095.29248     -1011.4104         50.8004
  25347585.352   133202399.741 6     -3277.027          39.900
  21874604.9844  114952010.63047      2619.2544         47.2004
  24864105.8364  130661771.47046      -363.0824         39.6004
  23690576.9384  124494795.87547      3197.4774         42.7004
 11 10 21 21  1 13.0000000  0 11G13G32G17G20G04G07G23G31G10G30G02
  20144690.0784  105860995.82948       777.3834         49.5004
  24848769.9224  130581343.08847     -2990.2504         42.3004
  24627605.586   129418956.335 6     -3162.359          40.700
  22194396.1804  116632694.33848     -2754.3444         48.0004
  20885775.4454  109755425.02248       514.7774         50.1004
  23954738.625   125883110.542 7      3719.793          42.900
  20452573.3444  107479106.92848     -1011.9304         51.0004
  25348209.359   133205676.967 6     -3277.547          39.600
  21874106.7584  114949391.60848      2618.8364         48.0004
  24864174.8674  130662134.83746      -363.8984         39.4004
  23689969.5634  124491598.55547      3197.1174         43.3004
 11 10 21 21  1 14.0000000  0 11G13G32G17G20G04G07G23G31G10G30G02
  20144542.3284  105860218.69948       777.0044         49.4004
  24849338.8054  130584333.08147     -2989.9184         42.2004
  24628207.469   129422118.639 6     -3162.184          40.900
  22194920.5394  116635448.59748     -2754.3324         48.0004
  20885677.4614  109754910.40348       514.4144         50.2004
  23954031.539   125879390.697 7      3719.926          43.200
  20452765.8754  107480118.94748     -1012.1524         51.4004
  25348832.805   133208954.345 6     -3277.250          39.800
  21873608.4304  114946772.77847      2618.8794         47.8004
  24864243.8754  130662498.79646      -364.2034         39.6004
  23689361.3054  124488401.46047      3197.0474         44.0004
 11 10 21 21  1 15.0000000  0 11G13G32G17G20G04G07G23G31G10G30G02
  20144394.3754  105859442.24548       776.3094         49.5004
  24849908.1094  130587323.29147     -2990.1804         42.5004
  24628809.844   129425281.203 6     -3162.406          41.100
  22195444.5864  116638203.24047     -2754.7074         47.9004
  20885579.8444  109754396.58148       513.5594         50.3004
  23953323.313   125875671.127 7      3719.680          43.100
  20452958.1484  107481131.54548     -1012.6844         51.2004
  25349457.000   133212232.128 6     -3277.930          39.700
  21873110.0944  114944154.35647      2618.3984         47.8004
  24864313.5634  130662863.56246      -364.9774         39.4004
  23688752.8674  124485204.80047      3196.6214         43.1004
 11 10 21 21  1 16.0000000  0 11G13G32G17G20G04G07G23G31G10G30G02
  20144246.7344  105858666.27048       775.5394         49.3004
  24850477.3054  130590313.52047     -2990.4184         43.1004
  24629411.352   129428443.769 6     -3162.687          41.300
  22195968.5004  116640958.10147     -2755.1254         47.6004
  20885482.2894  109753883.38548       512.7704         50.6004
  23952615.445   125871951.587 7      3719.375          42.300
  20453151.3834  107482144.54848     -1013.3284         51.4004
  25350080.414   133215510.108 6     -3278.187          39.700
  21872611.8674  114941536.12248      2618.0514         48.0004
  24864383.0554  130663228.91746      -365.7304         39.9004
  23688144.2194  124482008.37747      3196.1914         43.4004
 11 10 21 21  1 17.0000000  0 11G13G32G17G20G04G07G23G31G10G30G02
  20144099.3204  105857890.77548       775.1684         49.2004
  24851046.0394  130593303.75047     -2990.2584         43.3004
  24630013.500   129431606.348 6     -3162.719          41.100
  22196492.7894  116643713.18447     -2755.2854         47.8004
  20885384.8054  109753370.79948       512.0984         50.7004
  23951907.703   125868232.134 7      3719.254          42.500
  20453343.9534  107483157.94848     -1013.7074         51.7004
  25350704.391   133218788.260 6     -3278.324          39.100
  21872113.4144  114938918.10847      2617.8014         47.9004
  24864452.4304  130663594.87646      -366.2854         38.8004
  23687536.4384  124478812.21947      3196.0044         43.3004
 11 10 21 21  1 18.0000000  0 11G13G32G17G20G04G07G23G31G10G30G02
  20143952.0634  105857115.82748       774.6954         49.3004
  24851615.1024  130596294.04747     -2990.4184         43.0004
  24630615.414   129434769.019 6     -3162.711          41.400
  22197017.5004  116646468.51448     -2755.5084         48.2004
  20885287.6414  109752858.83248       511.7114         50.5004
  23951199.445   125864512.765 6      3719.359          41.600
  20453536.8914  107484171.77848     -1014.0944         51.5004
  25351328.172   133222066.656 6     -3278.605          39.600
  21871614.9924  114936300.34148      2617.6414         48.1004
  24864522.2814  130663961.51846      -366.8324         38.5004
  23686928.4064  124475616.35647      3195.6374         43.4004
 11 10 21 21  1 19.0000000  0 11G13G32G17G20G04G07G23G31G10G30G02
  20143804.3914  105856341.45748       774.0784         49.0004
  24852184.1954  130599284.49047     -2990.5084         43.0004
  24631217.156   129437931.806 6     -3162.871          41.700
  22197541.5394  116649224.16747     -2755.8124         47.8004
  20885189.9774  109752347.57748       510.9104         50.7004
  23950492.133   125860793.552 7      3719.199          42.200
  20453730.2034  107485186.12448     -1014.6334         51.6004
  25351952.578   133225345.348 6     -3278.910          39.400
  21871117.0554  114933682.90848      2617.3014         48.0004
  24864592.2974  130664328.88346      -367.8754         39.0004
  23686319.7814  124472420.83347      3195.3134         43.5004
 11 10 21 21  1 20.0000000  0 11G13G32G17G20G04G07G23G31G10G30G02
  20143657.0634  105855567.58048       773.6214         48.7004
  24852753.1724  130602274.88747     -2990.2854         43.0004
  24631818.977   129441094.622 6     -3162.742          41.400
  22198066.2114  116651980.01647     -2755.8554         47.9004
  20885093.0474  109751836.91948       510.4184         50.2004
  23949784.188   125857074.411 6      3719.125          41.700
  20453923.1884  107486200.85148     -1014.8714         51.9004
  25352576.406   133228624.238 6     -3278.914          39.400
  21870619.4694  114931065.66647      2617.1214         47.6004
  24864661.9924  130664696.72546      -368.1214         39.4004
  23685712.0084  124469225.53547      3195.1804         43.9004
 11 10 21 21  1 21.0000000  0 11G13G32G17G20G04G07G23G31G10G30G02
  20143510.2894  105854794.25948       772.9844         49.0004
  24853322.0554  130605265.41947     -2990.7074         43.2004
  24632421.070   129444257.545 6     -3163.090          41.600
  22198590.6024  116654736.15647     -2756.3874         47.4004
  20884995.6174  109751326.92348       509.5634         50.3004
  23949076.063   125853355.360 7      3718.918          42.000
  20454116.4064  107487216.06248     -1015.4884         51.3004
  25353200.391   133231903.408 6     -3279.398          39.600
  21870120.9064  114928448.70247      2616.7114         47.6004
  24864732.4064  130665065.33046      -369.1294         39.0004
  23685104.4144  124466030.57147      3194.6914         44.3004
 11 10 21 21  1 22.0000000  0 11G13G32G17G20G04G07G23G31G10G30G02
  20143363.1174  105854021.42848       772.5514         49.5004
  24853890.6254  130608255.96147     -2990.6254         42.7004
  24633022.859   129447420.490 6     -3163.012          41.400
  22199115.2584  116657492.49847     -2756.5234         47.5004
  20884898.5864  109750817.52748       509.0594         49.5004
  23948368.492   125849636.394 7      3718.965          42.500
  20454309.6484  107488231.66448     -1015.8874         51.6004
  25353824.008   133235182.747 6     -3279.605          39.900
  21869623.3674  114925831.94247      2616.5234         47.6004
  24864803.0234  130665434.50746      -369.4804         39.0004
  23684496.1644  124462835.82747      3194.5904         44.3004
 11 10 21 21  1 23.0000000  0 11G13G32G17G20G04G07G23G31G10G30G02
  20143216.1484  105853249.25648       771.9224         49.5004
  24854460.4534  130611246.67847     -2990.8164         42.5004
  24633624.906   129450583.650 7     -3163.250          42.200
  22199639.3594  116660249.21747     -2756.8834         47.8004
  20884801.7894  109750308.88848       508.3054         49.6004
  23947660.961   125845917.659 7      3718.664          42.700
  20454502.8594  107489247.82948     -1016.4144         51.9004
  25354448.469   133238462.442 6     -3279.949          39.700
  21869125.2034  114923215.55948      2616.2424         48.0004
  24864872.8914  130665804.49446      -370.4064         39.2004
  23683888.4064  124459641.50147      3194.2304         44.3004
 11 10 21 21  1 24.0000000  0 11G13G32G17G20G04G07G23G31G10G30G02
  20143068.8984  105852477.58148       771.5004         49.6004
  24855029.6094  130614237.42447     -2990.5904         42.7004
  24634227.641   129453746.814 7     -3163.113          42.600
  22200164.5004  116663006.15748     -2757.0314         48.0004
  20884705.1804  109749800.89648       507.7774         49.6004
  23946953.547   125842198.968 7      3718.762          43.100
  20454696.2734  107490264.38848     -1016.6414         52.0004
  25355072.367   133241742.331 6     -3279.824          39.500
  21868626.9694  114920599.37648      2616.1954         48.5004
  24864942.9064  130666175.00046      -370.7584         38.9004
  23683280.0704  124456447.42247      3194.0554         43.4004
 11 10 21 21  1 25.0000000  0 11G13G32G17G20G04G07G23G31G10G30G02
  20142922.5944  105851706.47448       771.0824         49.4004
  24855598.6334  130617228.29047     -2990.6604         43.3004
  24634829.086   129456910.100 7     -3163.062          42.200
  22200689.3914  116665763.39748     -2757.1484         48.2004
  20884608.6644  109749293.60548       507.2384         50.0004
  23946245.938   125838480.441 7      3718.715          43.000
  20454889.9844  107491281.45448     -1017.1294         52.1004
  25355696.109   133245022.516 6     -3280.066          39.900
  21868129.4774  114917983.52448      2615.8984         49.0004
  24865013.5634  130666546.28846      -371.3094         38.5004
  23682671.9144  124453253.69647      3193.8484         43.3004
 11 10 21 21  1 26.0000000  0 11G13G32G17G20G04G07G23G31G10G30G02
  20142775.7814  105850935.95448       770.0474         49.6004
  24856167.5474  130620219.21447     -2990.9884         43.6004
  24635430.188   129460073.500 6     -3163.590          41.600
  22201213.9694  116668520.93147     -2757.8094         47.7004
  20884512.1954  109748786.97248       506.1724         48.8004
  23945537.875   125834762.087 7      3718.172          43.700
  20455083.5944  107492298.98648     -1017.9104         52.1004
  25356320.711   133248303.003 6     -3280.750          40.100
  21867631.7974  114915367.95348      2615.2974         48.1004
  24865085.3204  130666918.20946      -372.2854         38.1004
  23682064.9774  124450060.28947      3193.1764         43.4004
 11 10 21 21  1 27.0000000  0 11G13G32G17G20G04G07G23G31G10G30G02
  20142629.2734  105850165.91848       769.5904         49.8004
  24856737.1334  130623210.21647     -2991.3164         43.5004
  24636032.477   129463236.931 6     -3163.695          41.800
  22201738.6174  116671278.68247     -2758.0824         47.5004
  20884415.9224  109748280.91748       505.5554         49.5004
  23944830.148   125831043.751 7      3718.055          43.900
  20455277.2734  107493316.91548     -1018.3364         52.3004
  25356945.578   133251583.647 6     -3281.004          39.600
  21867134.2194  114912752.58648      2615.0474         48.2004
  24865156.0634  130667290.78446      -373.1094         38.0004
  23681457.3364  124446867.11147      3192.8794         43.4004
 11 10 21 21  1 28.0000000  0 11G13G32G17G20G04G07G23G31G10G30G02
  20142483.0084  105849396.35548       769.3554         49.6004
  24857305.7424  130626201.17247     -2990.8164         43.5004
  24636634.453   129466400.385 6     -3163.449          41.700
  22202263.3674  116674036.60747     -2757.9844         47.3004
  20884319.8284  109747775.43948       505.1994         50.0004
  23944123.531   125827325.488 7      3718.285          44.100
  20455470.8444  107494335.22648     -1018.4654         52.1004
  25357568.438   133254864.466 6     -3280.812          39.400
  21866636.4384  114910137.41448      2615.0784         48.4004
  24865227.4774  130667663.91746      -373.3714         38.5004
  23680849.8984  124443674.20247      3192.8054         43.6004
 11 10 21 21  1 29.0000000  0 11G13G32G17G20G04G07G23G31G10G30G02
  20142336.8914  105848627.45348       768.5594         49.2004
  24857875.2894  130629192.34847     -2991.2194         43.5004
  24637236.242   129469564.022 6     -3163.758          41.300
  22202788.3914  116676794.93647     -2758.4614         47.3004
  20884223.8364  109747270.76948       504.3364         50.5004
  23943415.563   125823607.459 7      3717.938          44.500
  20455664.8524  107495354.11148     -1019.0434         51.7004
  25358194.047   133258145.675 6     -3281.430          39.400
  21866138.7734  114907522.61748      2614.6524         48.3004
  24865298.8754  130668037.79246      -374.1524         39.5004
  23680241.6094  124440481.68247      3192.3634         43.8004
 11 10 21 21  1 30.0000000  0 11G13G32G17G20G04G07G23G31G10G30G02
  20142190.0864  105847859.01348       768.1174         49.4004
  24858444.5234  130632183.49747     -2991.1604         44.0004
  24637838.789   129472727.661 6     -3163.750          41.300
  22203313.3054  116679553.44647     -2758.7234         47.4004
  20884127.7734  109746766.66848       503.7664         50.7004
  23942708.313   125819889.460 7      3717.930          44.900
  20455858.8524  107496373.37448     -1019.4964         51.7004
  25358817.477   133261427.038 6     -3281.535          39.900
  21865641.5474  114904907.99448      2614.4924         48.4004
  24865369.1174  130668412.31746      -374.9654         39.2004
  23679635.0474  124437289.37447      3192.2274         43.7004
 11 10 21 21  1 31.0000000  0 11G13G32G17G20G04G07G23G31G10G30G02
  20142044.4384  105847091.20048       767.5864         49.6004
  24859013.6174  130635174.82547     -2991.3244         44.3004
  24638440.125   129475891.487 6     -3163.977          41.400
  22203838.5314  116682312.31147     -2759.0354         47.9004
  20884031.9924  109746263.33348       502.9804         50.3004
  23942000.609   125816171.667 7      3717.629          44.100
  20456052.6254  107497393.16848     -1020.0044         51.2004
  25359442.133   133264708.721 6     -3281.785          39.700
  21865143.9144  114902293.74247      2614.0704         47.7004
  24865440.5394  130668787.50246      -375.5354         38.9004
  23679027.4224  124434097.47747      3191.7624         44.5004
 11 10 21 21  1 32.0000000  0 11G13G32G17G20G04G07G23G31G10G30G02
  20141898.2504  105846323.85448       767.1994         49.2004
  24859583.2734  130638166.16647     -2991.2974         44.0004
  24639042.047   129479055.299 6     -3163.746          41.100
  22204363.6564  116685071.36048     -2759.0784         48.1004
  20883936.3914  109745760.59148       502.5634         50.3004
  23941293.367   125812453.886 7      3717.902          43.700
  20456246.6644  107498413.36848     -1020.4064         51.9004
  25360067.461   133267990.609 6     -3281.910          40.200
  21864646.4454  114899679.67147      2613.9964         47.0004
  24865511.7584  130669163.31046      -375.9454         39.2004
  23678420.3364  124430905.81447      3191.5634         44.1004
 11 10 21 21  1 33.0000000  0 11G13G32G17G20G04G07G23G31G10G30G02
  20141752.0784  105845557.10448       766.3054         49.5004
  24860152.5554  130641157.58247     -2991.6414         43.7004
  24639644.273   129482219.228 6     -3164.211          41.600
  22204888.6644  116687830.71248     -2759.6874         48.2004
  20883841.0314  109745258.47848       501.6374         50.1004
  23940585.906   125808736.309 7      3717.262          43.600
  20456441.3834  107499434.00948     -1021.0554         52.0004
  25360692.180   133271272.747 6     -3282.457          40.400
  21864149.0474  114897065.88147      2613.4574         46.4004
  24865583.6174  130669539.82246      -376.9844         39.7004
  23677812.5004  124427714.45647      3191.0554         44.5004
 11 10 21 21  1 34.0000000  0 11G13G32G17G20G04G07G23G31G10G30G02
  20141606.4924  105844790.92748       765.9774         49.5004
  24860722.0634  130644149.13047     -2991.5864         43.1004
  24640246.359   129485383.292 6     -3164.023          41.300
  22205413.2974  116690590.38048     -2759.7544         48.3004
  20883745.4844  109744757.10748       501.0474         50.2004
  23939878.742   125805018.850 7      3717.340          43.900
  20456635.7034  107500455.17148     -1021.3834         52.0004
  25361316.453   133274555.210 6     -3282.574          40.400
  21863651.9454  114894452.40847      2613.3914         46.8004
  24865656.2344  130669917.03246      -377.5824         39.4004
  23677205.6174  124424523.45747      3190.9924         44.3004
 11 10 21 21  1 35.0000000  0 11G13G32G17G20G04G07G23G31G10G30G02
  20141461.2194  105844025.24048       765.4574         49.5004
  24861291.5234  130647140.69147     -2991.5594         43.1004
  24640848.328   129488547.404 6     -3164.148          40.600
  22205938.8834  116693350.26448     -2760.0204         48.4004
  20883650.2034  109744256.33248       500.4804         50.5004
  23939171.664   125801301.483 7      3717.250          44.400
  20456830.0394  107501476.72748     -1021.7664         51.8004
  25361941.008   133277837.816 6     -3282.723          40.100
  21863154.3834  114891839.15247      2613.1884         47.5004
  24865727.4384  130670294.81346      -378.0234         39.3004
  23676598.5314  124421332.72147      3190.6094         44.5004
 11 10 21 21  1 36.0000000  0 11G13G32G17G20G04G07G23G31G10G30G02
  20141315.1484  105843260.07548       764.7814         49.6004
  24861860.1724  130650132.27647     -2991.7974         43.1004
  24641450.406   129491711.545 6     -3164.418          40.900
  22206463.8524  116696110.36548     -2760.3754         48.5004
  20883554.9774  109743756.18948       499.6334         50.3004
  23938463.375   125797584.180 7      3717.031          44.100
  20457024.7974  107502498.70648     -1022.3834         51.6004
  25362566.242   133281120.694 6     -3283.125          39.400
  21862657.1954  114889226.12047      2612.7034         47.8004
  24865798.8754  130670673.23446      -378.8484         39.4004
  23675991.0554  124418142.23047      3190.2624         44.1004
 11 10 21 21  1 37.0000000  0 11G13G32G17G20G04G07G23G31G10G30G02
  20141169.3364  105842495.43648       764.2274         50.0004
  24862429.5234  130653123.93147     -2991.7774         43.6004
  24642052.461   129494875.733 6     -3164.297          40.900
  22206989.4614  116698870.74448     -2760.6844         48.0004
  20883460.0004  109743256.69948       498.9884         50.2004
  23937756.047   125793866.968 7      3717.004          44.300
  20457219.1094  107503521.13648     -1022.8094         51.5004
  25363190.484   133284403.813 6     -3283.449          40.000
  21862160.2894  114886613.35048      2612.4844         48.1004
  24865871.5004  130671052.33146      -379.5514         39.0004
  23675384.1174  124414952.02447      3189.9844         44.2004
 11 10 21 21  1 38.0000000  0 11G13G32G17G20G04G07G23G31G10G30G02
  20141024.2504  105841731.44148       763.7704         49.9004
  24862998.7664  130656115.75547     -2991.9144         43.9004
  24642655.273   129498040.115 6     -3164.441          40.500
  22207514.5084  116701631.44147     -2760.8674         47.5004
  20883364.7424  109742757.95648       498.3794         50.6004
  23937049.242   125790149.979 7      3716.945          44.700
  20457413.7974  107504544.10648     -1023.2344         51.6004
  25363815.109   133287687.241 6     -3283.594          40.600
  21861662.9694  114884000.92648      2612.2934         48.4004
  24865943.8204  130671432.13746      -380.1374         38.7004
  23674777.3984  124411762.21547      3189.7114         44.5004
 11 10 21 21  1 39.0000000  0 11G13G32G17G20G04G07G23G31G10G30G02
  20140879.1564  105840967.95248       763.3484         49.6004
  24863567.9064  130659107.60547     -2991.7034         44.5004
  24643257.586   129501204.541 6     -3164.266          41.100
  22208040.0394  116704392.40847     -2760.9534         47.6004
  20883270.3444  109742259.83448       497.8794         50.3004
  23936341.563   125786433.089 7      3716.949          44.300
  20457608.6174  107505567.47348     -1023.4574         51.7004
  25364439.617   133290970.851 6     -3283.527          40.200
  21861165.9384  114881388.75048      2612.1094         48.7004
  24866016.2894  130671812.55746      -380.6994         38.9004
  23674170.1954  124408572.68447      3189.5314         45.1004
 11 10 21 21  1 40.0000000  0 11G13G32G17G20G04G07G23G31G10G30G02
  20140733.6484  105840205.01348       762.8244         49.5004
  24864137.7344  130662099.52247     -2991.7704         44.2004
  24643859.789   129504369.084 6     -3164.422          41.800
  22208565.3054  116707153.62547     -2761.2344         47.6004
  20883175.5004  109741762.37248       497.2774         50.3004
  23935634.578   125782716.290 7      3716.918          44.300
  20457803.2894  107506591.32948     -1023.9804         51.8004
  25365064.773   133294254.773 6     -3283.871          39.700
  21860669.0084  114878776.85548      2611.8594         48.8004
  24866089.0004  130672193.70946      -381.4144         39.2004
  23673563.3674  124405383.47847      3189.2074         44.5004
 11 10 21 21  1 41.0000000  0 11G13G32G17G20G04G07G23G31G10G30G02
  20140588.5864  105839442.57748       762.1644         49.4004
  24864707.0474  130665091.51047     -2992.1214         43.8004
  24644461.898   129507533.618 7     -3164.621          42.400
  22209090.6254  116709915.07448     -2761.6914         48.1004
  20883081.1334  109741265.53448       496.4184         50.2004
  23934927.141   125778999.572 7      3716.645          44.000
  20457998.1174  107507615.57648     -1024.6174         51.9004
  25365689.773   133297538.887 6     -3284.293          39.800
  21860172.0704  114876165.17148      2611.4144         48.6004
  24866162.3834  130672575.42146      -382.0664         39.9004
  23672956.8134  124402194.48447      3188.7934         43.7004
 11 10 21 21  1 42.0000000  0 11G13G32G17G20G04G07G23G31G10G30G02
  20140443.2034  105838680.65448       761.6414         49.8004
  24865276.0234  130668083.50947     -2992.0664         44.1004
  24645064.586   129510698.209 7     -3164.633          42.200
  22209616.1414  116712676.74847     -2761.8364         47.9004
  20882986.6954  109740769.31948       495.9184         50.6004
  23934219.992   125775282.932 7      3716.602          44.100
  20458193.1254  107508640.20948     -1024.8524         51.7004
  25366314.352   133300823.174 6     -3284.461          39.400
  21859674.9614  114873553.68848      2611.3554         48.8004
  24866234.7734  130672957.72846      -382.5394         40.4004
  23672349.8444  124399005.78047      3188.5594         43.4004
 11 10 21 21  1 43.0000000  0 11G13G32G17G20G04G07G23G31G10G30G02
  20140298.8834  105837919.42248       760.9734         49.6004
  24865845.5084  130671075.73447     -2992.2854         43.9004
  24645666.516   129513863.053 6     -3164.926          41.700
  22210141.6884  116715438.85247     -2762.2704         47.5004
  20882892.6094  109740273.92748       495.0004         51.0004
  23933512.625   125771566.570 7      3716.414          44.100
  20458388.4844  107509665.49448     -1025.5474         51.2004
  25366940.039   133304107.901 6     -3284.816          39.200
  21859178.0634  114870942.66148      2610.8404         48.5004
  24866307.8204  130673340.88946      -383.4884         40.2004
  23671743.2734  124395817.52747      3188.0124         43.4004
 11 10 21 21  1 44.0000000  0 11G13G32G17G20G04G07G23G31G10G30G02
  20140154.1254  105837158.74548       760.4654         49.9004
  24866414.9534  130674068.04147     -2992.2304         43.6004
  24646268.961   129517027.988 6     -3164.902          41.300
  22210667.2584  116718201.23747     -2762.4804         47.8004
  20882798.4614  109739779.22048       494.4344         50.3004
  23932805.609   125767850.369 7      3716.180          44.100
  20458583.7034  107510691.24048     -1025.9104         51.1004
  25367564.898   133307392.881 6     -3285.090          39.400
  21858681.0474  114868331.91048      2610.6564         48.5004
  24866380.9614  130673724.71946      -384.1094         39.2004
  23671136.8524  124392629.59647      3187.9024         43.7004
 11 10 21 21  1 45.0000000  0 11G13G32G17G20G04G07G23G31G10G30G02
  20140009.3984  105836398.47048       760.0554         50.0004
  24866984.9304  130677060.30747     -2992.2274         44.0004
  24646871.141   129520192.849 6     -3164.906          41.700
  22211192.9304  116720963.72847     -2762.5624         47.9004
  20882704.0784  109739284.98348       493.9264         50.8004
  23932098.477   125764134.104 7      3716.188          43.800
  20458778.7344  107511717.26948     -1026.1874         51.1004
  25368190.055   133310677.950 6     -3285.109          39.700
  21858184.5474  114865721.27848      2610.5474         48.1004
  24866453.7424  130674109.06146      -384.6724         39.5004
  23670530.1094  124389441.80647      3187.8204         43.6004
 11 10 21 21  1 46.0000000  0 11G13G32G17G20G04G07G23G31G10G30G02
  20139864.5554  105835638.73748       759.5044         49.9004
  24867553.6724  130680052.62647     -2992.3634         44.0004
  24647473.273   129523357.772 6     -3164.891          41.700
  22211718.8134  116723726.50447     -2762.8014         47.9004
  20882610.1334  109738791.41848       493.3134         50.8004
  23931390.555   125760417.952 7      3716.211          43.700
  20458974.0704  107512743.77048     -1026.7074         51.2004
  25368815.797   133313963.305 6     -3285.590          39.700
  21857687.4844  114863110.90148      2610.3134         48.4004
  24866526.6094  130674494.01646      -385.2854         39.6004
  23669923.3914  124386254.33047      3187.4304         43.4004
 11 10 21 21  1 47.0000000  0 11G13G32G17G20G04G07G23G31G10G30G02
  20139720.3054  105834879.65348       758.9144         49.8004
  24868123.5004  130683045.11847     -2992.3714         44.1004
  24648075.203   129526522.902 6     -3164.992          41.100
  22212244.9844  116726489.65948     -2763.1954         48.2004
  20882516.4224  109738298.63148       492.5354         50.7004
  23930684.063   125756702.058 7      3716.051          44.400
  20459169.4454  107513770.82648     -1027.1804         51.3004
  25369440.102   133317248.977 6     -3285.676          40.400
  21857190.6334  114860500.90248      2609.9614         48.4004
  24866600.6804  130674879.78946      -386.0394         39.9004
  23669317.1564  124383067.28847      3186.9494         43.4004
 11 10 21 21  1 48.0000000  0 11G13G32G17G20G04G07G23G31G10G30G02
  20139576.2974  105834121.02548       758.5044         49.9004
  24868692.5554  130686037.58647     -2992.4224         44.0004
  24648678.063   129529688.010 6     -3164.977          41.100
  22212770.8524  116729252.95648     -2763.2934         48.6004
  20882423.0474  109737806.38148       492.0904         50.8004
  23929977.344   125752986.160 7      3715.887          44.400
  20459365.0944  107514798.20248     -1027.4844         51.6004
  25370066.211   133320534.810 6     -3285.742          40.400
  21856694.6094  114857891.05948      2609.8244         48.5004
  24866674.3284  130675266.08546      -386.4574         39.7004
  23668710.2504  124379880.39547      3186.9534         43.5004
 11 10 21 21  1 49.0000000  0 11G13G32G17G20G04G07G23G31G10G30G02
  20139431.6644  105833362.90848       757.8594         49.7004
  24869262.3984  130689030.13647     -2992.6644         43.9004
  24649280.172   129532853.215 6     -3165.359          40.800
  22213296.4844  116732016.52847     -2763.7384         47.9004
  20882329.3204  109737314.79248       491.2194         50.5004
  23929269.813   125749270.386 7      3715.691          44.500
  20459560.8524  107515826.06048     -1028.1844         51.3004
  25370691.797   133323820.846 6     -3286.102          40.500
  21856197.4774  114855281.48048      2609.4224         49.0004
  24866747.4064  130675652.99246      -387.1294         40.3004
  23668103.9454  124376693.83947      3186.3284         43.6004
 11 10 21 21  1 50.0000000  0 11G13G32G17G20G04G07G23G31G10G30G02
  20139287.7424  105832605.34048       757.3134         49.9004
  24869831.2974  130692022.70847     -2992.6174         44.2004
  24649882.219   129536018.414 6     -3165.234          40.900
  22213822.5084  116734780.32748     -2763.8834         48.1004
  20882235.8364  109736823.83648       490.6844         50.8004
  23928562.695   125745554.686 7      3715.566          44.200
  20459756.7034  107516854.31948     -1028.4774         51.2004
  25371317.352   133327107.150 6     -3286.398          40.300
  21855701.0704  114852672.15648      2609.2274         48.7004
  24866821.5314  130676040.66146      -388.0704         39.7004
  23667497.2974  124373507.53947      3186.1644         43.8004
 11 10 21 21  1 51.0000000  0 11G13G32G17G20G04G07G23G31G10G30G02
  20139143.7344  105831848.37048       756.7154         49.9004
  24870401.0784  130695015.45547     -2992.8524         43.6004
  24650484.453   129539183.828 6     -3165.398          40.100
  22214348.7584  116737544.47048     -2764.2894         48.2004
  20882142.0234  109736333.59448       489.9304         50.9004
  23927855.633   125741839.197 7      3715.465          44.600
  20459952.3204  107517883.10048     -1028.9924         51.1004
  25371942.453   133330393.764 6     -3286.777          40.100
  21855204.7344  114850063.13548      2608.9774         48.2004
  24866895.5474  130676428.94946      -388.6644         40.0004
  23666891.5634  124370321.61947      3185.7624         43.9004
 11 10 21 21  1 52.0000000  0 11G13G32G17G20G04G07G23G31G10G30G02
  20138999.1334  105831091.84048       756.2734         50.0004
  24870969.9454  130698008.12747     -2992.8204         43.4004
  24651086.922   129542349.172 6     -3165.277          40.500
  22214874.6484  116740308.77547     -2764.4614         47.9004
  20882049.0944  109735843.93448       489.3094         50.7004
  23927148.820   125738123.663 7      3715.434          43.900
  20460147.5164  107518912.24748     -1029.4184         51.1004
  25372567.586   133333680.517 6     -3286.953          39.900
  21854708.3754  114847454.31048      2608.6764         48.1004
  24866968.5474  130676817.82946      -389.1804         40.5004
  23666284.7114  124367135.89747      3185.5704         43.2004
 11 10 21 21  1 53.0000000  0 11G13G32G17G20G04G07G23G31G10G30G02
  20138855.7584  105830335.97248       755.5514         49.8004
  24871540.4454  130701001.00447     -2992.9804         43.3004
  24651689.547   129545514.755 6     -3165.699          40.600
  22215400.8134  116743073.46348     -2764.8244         48.0004
  20881956.6884  109735355.01948       488.5904         50.3004
  23926441.977   125734408.431 7      3715.219          44.300
  20460343.3594  107519941.96048     -1029.9734         50.9004
  25373193.227   133336967.632 6     -3287.395          40.300
  21854212.3364  114844845.86348      2608.2974         48.2004
  24867043.2974  130677207.52446      -389.9374         40.0004
  23665678.7734  124363950.55847      3185.2114         43.3004
 11 10 21 21  1 54.0000000  0 11G13G32G17G20G04G07G23G31G10G30G02
  20138711.6644  105829580.63048       754.9844         49.5004
  24872109.6954  130703993.89947     -2992.8834         43.6004
  24652291.969   129548680.364 6     -3165.754          40.600
  22215926.5394  116745838.38747     -2765.0864         47.9004
  20881863.1024  109734866.72448       487.9104         50.0004
  23925734.836   125730693.258 7      3715.086          44.400
  20460539.5394  107520972.08548     -1030.4574         50.5004
  25373818.656   133340254.975 6     -3287.602          40.500
  21853715.3914  114842237.63047      2608.0004         47.5004
  24867118.3594  130677597.74146      -390.6094         39.8004
  23665072.5234  124360765.55447      3184.7934         43.0004
 11 10 21 21  1 55.0000000  0 11G13G32G17G20G04G07G23G31G10G30G02
  20138568.2814  105828825.81348       754.5984         49.8004
  24872679.3134  130706986.92247     -2993.0204         43.5004
  24652894.313   129551846.102 6     -3165.906          40.600
  22216453.3834  116748603.61548     -2765.3914         48.3004
  20881770.5004  109734379.13548       487.3364         50.0004
  23925027.836   125726978.253 7      3715.020          43.500
  20460735.8834  107522002.69948     -1030.8014         50.6004
  25374444.094   133343542.554 6     -3287.723          40.400
  21853219.2814  114839629.69047      2607.8524         47.6004
  24867191.7424  130677988.68946      -391.2704         40.0004
  23664466.6644  124357580.85247      3184.6024         43.8004
 11 10 21 21  1 56.0000000  0 11G13G32G17G20G04G07G23G31G10G30G02
  20138424.8524  105828071.54748       753.8054         50.2004
  24873249.2114  130709979.97647     -2993.3524         42.3004
  24653496.656   129555011.832 6     -3165.965          40.800
  22216979.2344  116751369.03648     -2765.7734         48.2004
  20881677.8284  109733892.16748       486.4574         50.2004
  23924320.766   125723263.299 7      3714.730          43.700
  20460932.2664  107523033.69548     -1031.3524         50.9004
  25375070.242   133346830.299 6     -3287.965          40.200
  21852723.5004  114837021.99248      2607.3954         48.1004
  24867265.4454  130678380.23946      -392.0354         39.5004
  23663860.9224  124354396.40647      3184.0004         43.7004
 11 10 21 21  1 57.0000000  0 11G13G32G17G20G04G07G23G31G10G30G02
  20138281.6174  105827317.83548       753.3134         50.0004
  24873818.4454  130712973.12647     -2993.3954         42.9004
  24654098.875   129558177.694 6     -3166.121          40.900
  22217505.6094  116754134.76847     -2766.0164         47.9004
  20881585.3914  109733405.89148       485.8524         50.3004
  23923614.234   125719548.499 7      3714.574          43.900
  20461128.2974  107524065.20448     -1031.8714         51.0004
  25375695.719   133350118.448 6     -3288.352          39.900
  21852226.9614  114834414.56948      2607.1724         48.2004
  24867339.8754  130678772.50046      -392.7934         39.4004
  23663254.7504  124351212.29847      3183.7424         43.3004
 11 10 21 21  1 58.0000000  0 11G13G32G17G20G04G07G23G31G10G30G02
  20138138.1954  105826564.61448       753.0204         49.5004
  24874388.1724  130715966.31047     -2993.1024         43.0004
  24654701.266   129561343.572 6     -3165.812          41.400
  22218031.7894  116756900.72647     -2766.0824         47.9004
  20881492.9694  109732920.21848       485.4024         50.3004
  23922906.836   125715833.780 7      3714.691          44.000
  20461324.8134  107525097.10948     -1032.1334         51.2004
  25376321.539   133353406.680 6     -3288.246          40.200
  21851730.7974  114831807.36148      2607.1724         48.1004
  24867415.6954  130679165.35046      -392.9344         40.0004
  23662648.8524  124348028.45147      3183.7974         43.4004
 11 10 21 21  1 59.0000000  0 11G13G32G17G20G04G07G23G31G10G30G02
  20137994.9224  105825811.97248       752.2344         49.2004
  24874957.2734  130718959.57747     -2993.4964         43.1004
  24655304.227   129564509.568 6     -3166.148          41.700
  22218557.9304  116759666.96147     -2766.4924         47.7004
  20881400.7894  109732435.22948       484.5004         50.7004
  23922199.758   125712119.202 7      3714.309          43.600
  20461521.3284  107526129.46748     -1032.7074         51.1004
  25376947.195   133356695.215 6     -3288.691          40.100
  21851234.7034  114829200.44347      2606.6334         47.5004
  24867490.1724  130679558.90146      -393.9614         39.0004
  23662043.3134  124344844.91647      3183.3134         43.3004
 11 10 21 21  2  0.0000000  0 11G13G32G17G20G04G07G23G31G10G30G02
  20137851.9064  105825059.84648       751.9304         49.3004
  24875526.4064  130721952.90947     -2993.2774         43.4004
  24655906.375   129567675.635 7     -3166.121          42.000
  22219084.7344  116762433.45247     -2766.6054         47.5004
  20881308.4534  109731950.89048       484.1054         50.4004
  23921493.383   125708404.714 7      3714.480          44.000
  20461717.7584  107527162.27348     -1032.9734         51.1004
  25377572.914   133359983.997 6     -3288.695          40.500
  21850738.6884  114826593.80047      2606.5864         47.5004
  24867565.1724  130679953.06746      -394.4964         38.8004
  23661437.6884  124341661.68647      3183.2154         43.2004
 11 10 21 21  2  1.0000000  0 11G13G32G17G20G04G07G23G31G10G30G02
  20137708.9534  105824308.39748       751.2584         49.2004
  24876096.6414  130724946.41447     -2993.5784         43.4004
  24656509.500   129570841.876 7     -3166.293          42.200
  22219611.8364  116765200.33247     -2767.0274         47.3004
  20881216.1804  109731467.29648       483.3204         50.5004
  23920786.281   125704690.452 7      3714.352          43.900
  20461914.5394  107528195.64448     -1033.5664         51.4004
  25378198.531   133363273.130 6     -3289.117          40.600
  21850243.0474  114823987.50147      2606.2034         47.7004
  24867640.1884  130680348.00946      -395.2854         38.4004
  23660831.9694  124338478.86447      3182.6454         43.7004
 11 10 21 21  2  2.0000000  0 11G13G32G17G20G04G07G23G31G10G30G02
  20137565.7504  105823557.41948       750.6374         49.4004
  24876666.1804  130727939.93047     -2993.5824         44.0004
  24657112.164   129574008.143 6     -3166.297          41.800
  22220137.3524  116767967.39947     -2767.3094         47.1004
  20881124.8524  109730984.29048       482.6764         50.7004
  23920079.719   125700976.276 7      3714.125          43.900
  20462111.2664  107529229.39648     -1033.9374         51.7004
  25378824.766   133366562.431 6     -3289.375          40.700
  21849746.9304  114821381.40948      2605.9654         48.1004
  24867715.3834  130680743.55546      -395.9884         38.9004
  23660226.0704  124335296.27947      3182.4024         44.8004
 11 10 21 21  2  3.0000000  0 11G13G32G17G20G04G07G23G31G10G30G02
  20137423.2344  105822807.06348       750.2114         49.5004
  24877235.9844  130730933.58947     -2993.4774         43.2004
  24657714.641   129577174.556 6     -3166.316          41.700
  22220664.7584  116770734.82647     -2767.4734         47.3004
  20881032.9534  109730502.02748       482.0824         50.8004
  23919373.047   125697262.271 7      3714.137          44.000
  20462308.1884  107530263.68248     -1034.3244         51.4004
  25379451.203   133369852.073 6     -3289.578          40.500
  21849251.1724  114818775.68347      2605.7194         47.7004
  24867791.5864  130681139.84946      -396.4694         38.7004
  23659620.9534  124332114.08347      3182.1724         44.5004
 11 10 21 21  2  4.0000000  0 11G13G32G17G20G04G07G23G31G10G30G02
  20137280.5944  105822057.00448       749.8754         49.3004
  24877806.0704  130733927.11947     -2993.4374         42.7004
  24658316.898   129580340.820 6     -3166.246          41.400
  22221191.3594  116773502.26847     -2767.5474         47.3004
  20880941.2114  109730020.20148       481.4844         51.0004
  23918666.188   125693548.200 7      3714.035          44.000
  20462504.9064  107531298.18948     -1034.6764         51.2004
  25380076.945   133373141.728 6     -3289.762          40.300
  21848755.2974  114816169.96948      2605.7154         48.1004
  24867867.1724  130681536.51846      -396.9534         38.1004
  23659015.8134  124328931.96447      3182.0744         44.1004
 11 10 21 21  2  5.0000000  0 11G13G32G17G20G04G07G23G31G10G30G02
  20137137.6024  105821307.63148       749.0864         49.3004
  24878376.0394  130736920.82647     -2993.7344         42.5004
  24658919.398   129583507.289 6     -3166.562          41.500
  22221718.1804  116776270.11847     -2768.0624         47.8004
  20880849.7344  109729539.18348       480.6454         51.0004
  23917959.203   125689834.338 7      3713.668          44.100
  20462701.8284  107532333.27248     -1035.3954         51.1004
  25380702.055   133376431.738 6     -3290.230          40.600
  21848259.7734  114813564.69048      2605.0554         48.4004
  24867942.3594  130681934.03046      -397.8754         38.2004
  23658409.4534  124325750.29447      3181.3984         43.0004
 11 10 21 21  2  6.0000000  0 11G13G32G17G20G04G07G23G31G10G30G02
  20136995.1884  105820558.73848       748.5354         49.5004
  24878945.5784  130739914.55847     -2993.8484         42.6004
  24659522.156   129586673.817 6     -3166.555          41.800
  22222244.6334  116779038.19547     -2768.3634         47.9004
  20880758.2504  109729058.77648       480.0394         51.1004
  23917252.305   125686120.558 7      3713.648          44.300
  20462899.0164  107533368.78148     -1035.8014         51.1004
  25381329.055   133379721.970 6     -3290.406          40.600
  21847763.8134  114810959.60948      2604.9454         48.8004
  24868018.4534  130682332.11946      -398.5314         38.8004
  23657804.2814  124322568.83647      3181.1644         42.0004
 11 10 21 21  2  7.0000000  0 11G13G32G17G20G04G07G23G31G10G30G02
  20136852.9454  105819810.43248       748.0864         49.1004
  24879515.2584  130742908.43347     -2993.9924         43.0004
  24660124.438   129589840.473 6     -3166.758          41.900
  22222771.8204  116781806.56547     -2768.5314         47.9004
  20880666.6484  109728579.06348       479.3364         50.4004
  23916546.367   125682406.954 7      3713.434          44.600
  20463095.7814  107534404.78948     -1036.2894         50.8004
  25381955.297   133383012.504 6     -3290.762          39.700
  21847268.0944  114808354.85348      2604.5664         48.5004
  24868094.4384  130682730.94646      -399.3244         38.3004
  23657198.4304  124319387.74147      3180.9694         42.2004
 11 10 21 21  2  8.0000000  0 11G13G32G17G20G04G07G23G31G10G30G02
  20136710.7194  105819062.67048       747.5394         49.2004
  24880084.6484  130745902.35447     -2994.0704         43.1004
  24660727.906   129593007.193 7     -3166.828          42.100
  22223298.4534  116784575.21147     -2768.8244         47.9004
  20880575.7274  109728100.00948       478.7384         50.2004
  23915839.508   125678693.465 7      3713.441          44.900
  20463293.2034  107535441.22948     -1036.6024         51.0004
  25382580.930   133386303.249 6     -3290.820          39.600
  21846772.1414  114805750.33748      2604.3674         48.5004
  24868170.6884  130683130.41546      -399.7854         38.5004
  23656593.4304  124316206.96447      3180.6524         42.6004
 11 10 21 21  2  9.0000000  0 11G13G32G17G20G04G07G23G31G10G30G02
  20136568.7894  105818315.43948       747.1094         49.7004
  24880654.0314  130748896.33947     -2993.8714         43.2004
  24661330.039   129596173.960 7     -3166.695          42.400
  22223825.4304  116787344.09348     -2768.9104         48.2004
  20880484.8134  109727621.57048       478.2854         50.3004
  23915132.586   125674980.067 7      3713.508          44.900
  20463490.6024  107536478.11648     -1036.9184         51.1004
  25383207.703   133389594.233 6     -3290.910          39.800
  21846276.8054  114803146.08048      2604.3164         48.7004
  24868246.4454  130683530.47846      -400.2504         38.7004
  23655988.0944  124313026.45347      3180.5744         43.5004
 11 10 21 21  2 10.0000000  0 11G13G32G17G20G04G07G23G31G10G30G02
  20136426.2664  105817568.78548       746.2664         50.0004
  24881223.9144  130751890.40747     -2994.1564         43.3004
  24661932.711   129599340.839 7     -3166.949          42.600
  22224352.4224  116790113.27347     -2769.3914         47.9004
  20880393.8754  109727143.82248       477.3714         50.3004
  23914426.305   125671266.833 7      3713.051          45.100
  20463687.9064  107537515.49448     -1037.6804         50.9004
  25383834.250   133392885.476 6     -3291.359          39.900
  21845781.3364  114800542.13648      2603.7034         48.6004
  24868321.5944  130683931.28346      -401.3714         38.8004
  23655383.5474  124309846.30747      3179.8714         43.7004
 11 10 21 21  2 11.0000000  0 11G13G32G17G20G04G07G23G31G10G30G02
  20136284.5314  105816822.67348       746.0944         49.5004
  24881793.8054  130754884.57047     -2993.9734         43.2004
  24662535.430   129602507.822 7     -3166.812          42.500
  22224879.5394  116792882.74748     -2769.4494         48.2004
  20880303.1094  109726666.78748       476.9104         50.3004
  23913720.172   125667553.729 7      3713.215          44.500
  20463885.6484  107538553.32348     -1037.8754         51.2004
  25384459.719   133396177.005 6     -3291.336          40.200
  21845285.7584  114797938.46448      2603.7814         48.2004
  24868398.2504  130684332.73246      -401.5314         38.9004
  23654778.6884  124306666.47847      3179.8094         44.1004
 11 10 21 21  2 12.0000000  0 11G13G32G17G20G04G07G23G31G10G30G02
  20136142.4144  105816077.13348       745.2584         49.9004
  24882363.7274  130757878.84947     -2994.3794         43.6004
  24663137.453   129605674.894 7     -3167.078          42.100
  22225406.4224  116795652.48048     -2769.8054         48.2004
  20880211.8984  109726190.42648       475.9884         50.6004
  23913013.008   125663840.749 7      3712.910          44.300
  20464083.1094  107539591.61248     -1038.4964         51.3004
  25385086.125   133399468.772 6     -3291.781          40.100
  21844790.3834  114795335.07248      2603.3204         48.1004
  24868474.8914  130684734.90246      -402.3914         39.2004
  23654172.7194  124303486.94047      3179.4264         44.2004
 11 10 21 21  2 13.0000000  0 11G13G32G17G20G04G07G23G31G10G30G02
  20136000.5234  105815332.16348       744.4414         49.6004
  24882933.5234  130760873.18747     -2994.7894         42.6004
  24663740.953   129608842.060 7     -3167.508          42.100
  22225933.7344  116798422.50947     -2770.4374         47.9004
  20880122.0634  109725714.72048       475.0514         50.4004
  23912306.672   125660127.935 7      3712.445          43.900
  20464280.5314  107540630.37648     -1039.2854         51.1004
  25385713.313   133402760.795 6     -3292.406          40.300
  21844295.0704  114792731.98148      2602.6214         48.6004
  24868551.8284  130685137.69146      -403.4454         39.4004
  23653568.5864  124300307.76147      3178.6884         43.8004
 11 10 21 21  2 14.0000000  0 11G13G32G17G20G04G07G23G31G10G30G02
  20135859.1884  105814587.61448       744.2734         49.9004
  24883502.5084  130763867.49447     -2994.4304         42.7004
  24664343.180   129612009.216 6     -3167.246          41.700
  22226460.6414  116801192.69248     -2770.3164         48.1004
  20880031.3444  109725239.58748       474.7814         50.2004
  23911600.250   125656415.103 7      3712.684          44.400
  20464478.3134  107541669.48248     -1039.3014         51.4004
  25386338.797   133406052.970 6     -3292.219          40.200
  21843799.6414  114790129.03248      2602.7624         48.2004
  24868628.5314  130685541.04646      -403.6454         38.9004
  23652963.2894  124297128.75147      3178.7974         43.7004
 11 10 21 21  2 15.0000000  0 11G13G32G17G20G04G07G23G31G10G30G02
  20135717.1804  105813843.62048       743.7704         49.8004
  24884072.6564  130766861.87746     -2994.3444         41.1004
  24664946.336   129615176.384 6     -3167.105          41.600
  22226987.8204  116803963.14048     -2770.5664         48.1004
  20879941.3524  109724765.08148       474.2194         50.2004
  23910893.563   125652702.398 7      3712.668          45.000
  20464676.2274  107542709.02948     -1039.6804         50.3004
  25386966.070   133409345.365 6     -3292.414          40.300
  21843304.5314  114787526.34748      2602.5904         48.8004
  24868705.5944  130685945.01746      -404.2234         38.9004
  23652358.5004  124293950.05547      3178.4734         43.7004
 11 10 21 21  2 16.0000000  0 11G13G32G17G20G04G07G23G31G10G30G02
  20135576.2344  105813100.26048       743.1214         49.6004
  24884642.9614  130769856.40146     -2994.6174         41.6004
  24665549.086   129618343.773 6     -3167.410          41.100
  22227515.0704  116806733.95048     -2771.0164         48.6004
  20879850.9774  109724291.33248       473.3914         50.2004
  23910187.180   125648989.905 7      3712.379          44.700
  20464874.2114  107543749.13348     -1040.3124         50.8004
  25387591.789   133412638.146 6     -3293.051          40.200
  21842809.5474  114784924.03648      2602.1644         48.9004
  24868782.3834  130686349.79646      -404.9144         38.9004
  23651753.2974  124290771.75047      3178.2194         43.3004
 11 10 21 21  2 17.0000000  0 11G13G32G17G20G04G07G23G31G10G30G02
  20135434.4844  105812357.38648       742.6954         49.9004
  24885212.5944  130772850.94147     -2994.5084         42.2004
  24666152.352   129621511.154 6     -3167.328          41.400
  22228042.4534  116809504.94048     -2770.9964         48.4004
  20879761.0864  109723818.18248       472.8914         50.7004
  23909480.953   125645277.482 7      3712.445          45.100
  20465072.4304  107544789.60948     -1040.6054         50.8004
  25388219.086   133415931.060 6     -3293.051          39.800
  21842314.1564  114782321.92248      2602.0704         49.1004
  24868858.6174  130686755.17546      -405.6994         38.6004
  23651148.5704  124287593.70847      3177.9414         43.2004
 11 10 21 21  2 18.0000000  0 11G13G32G17G20G04G07G23G31G10G30G02
  20135293.3444  105811615.15448       741.6484         50.0004
  24885782.6954  130775845.66747     -2994.9694         42.8004
  24666754.711   129624678.730 6     -3168.023          41.600
  22228569.0394  116812276.32648     -2771.8484         48.1004
  20879671.2344  109723345.79448       471.6414         50.9004
  23908773.852   125641565.269 7      3711.793          44.900
  20465270.4694  107545830.65748     -1041.6094         50.9004
  25388845.633   133419224.320 6     -3293.703          39.700
  21841819.0944  114779720.18548      2601.2304         49.1004
  24868936.4454  130687161.27946      -406.8124         39.4004
  23650543.4304  124284416.03047      3177.1564         43.0004
 11 10 21 21  2 19.0000000  0 11G13G32G17G20G04G07G23G31G10G30G02
  20135152.1884  105810873.44148       741.4414         50.0004
  24886352.6174  130778840.43447     -2994.7894         43.3004
  24667356.727   129627846.320 7     -3167.625          42.000
  22229096.8134  116815047.94148     -2771.8484         48.2004
  20879581.5314  109722874.01348       471.4694         50.5004
  23908067.484   125637853.142 7      3712.090          45.000
  20465468.8364  107546872.10348     -1041.6764         50.8004
  25389472.695   133422517.813 6     -3293.676          40.200
  21841324.0394  114777118.67348      2601.3874         49.3004
  24869015.0784  130687568.01546      -407.1334         39.6004
  23649938.9224  124281238.65147      3177.1914         43.0004
 11 10 21 21  2 20.0000000  0 11G13G32G17G20G04G07G23G31G10G30G02
  20135011.1644  105810132.20348       740.8284         49.7004
  24886922.3284  130781835.21147     -2995.0594         43.4004
  24667959.797   129631013.955 6     -3167.867          41.900
  22229624.5784  116817819.75348     -2772.1844         48.3004
  20879491.7194  109722402.80448       470.7584         50.7004
  23907361.125   125634141.097 7      3711.781          45.000
  20465667.0314  107547913.94048     -1042.2304         51.3004
  25390099.453   133425811.472 6     -3293.863          40.000
  21840828.9304  114774517.35448      2601.0474         49.2004
  24869092.1564  130687975.32746      -407.7974         39.8004
  23649334.6564  124278061.49647      3176.8204         43.0004
 11 10 21 21  2 21.0000000  0 11G13G32G17G20G04G07G23G31G10G30G02
  20134870.1414  105809391.52448       740.4774         49.6004
  24887492.0084  130784830.07047     -2994.9344         43.7004
  24668562.563   129634181.665 7     -3167.707          42.100
  22230152.1094  116820591.82548     -2772.2034         48.1004
  20879402.3834  109721932.31348       470.2074         50.7004
  23906655.195   125630429.172 7      3711.820          44.900
  20465865.1724  107548956.24248     -1042.4924         51.9004
  25390726.141   133429105.393 6     -3293.980          40.200
  21840334.1024  114771916.34148      2600.8914         49.2004
  24869169.3984  130688383.32846      -408.2544         39.9004
  23648730.1644  124274884.68347      3176.6914         43.4004
 11 10 21 21  2 22.0000000  0 11G13G32G17G20G04G07G23G31G10G30G02
  20134729.2114  105808651.40848       739.6174         49.7004
  24888062.8594  130787824.99947     -2995.0984         42.5004
  24669165.258   129637349.455 6     -3167.984          41.400
  22230679.6414  116823364.17748     -2772.6954         48.1004
  20879312.3284  109721462.48648       469.3594         50.8004
  23905948.523   125626717.358 7      3711.676          44.600
  20466063.1414  107549999.00148     -1043.1094         51.6004
  25391353.156   133432399.557 6     -3294.570          40.100
  21839838.8524  114769315.58448      2600.4344         49.2004
  24869247.0004  130688791.99146      -409.1844         39.6004
  23648126.0084  124271708.17047      3176.2034         43.7004
 11 10 21 21  2 23.0000000  0 11G13G32G17G20G04G07G23G31G10G30G02
  20134588.6724  105807911.79548       739.2304         49.9004
  24888631.9614  130790819.97547     -2995.1374         42.7004
  24669767.781   129640517.311 6     -3168.078          41.600
  22231207.1174  116826136.77648     -2772.9104         48.5004
  20879223.1804  109720993.30548       468.6604         50.8004
  23905242.047   125623005.661 7      3711.496          44.700
  20466261.7814  107551042.18948     -1043.5664         51.6004
  25391979.414   133435693.960 6     -3294.730          39.600
  21839344.1094  114766715.07448      2600.1684         48.9004
  24869325.6484  130689201.28246      -409.9304         39.7004
  23647521.9694  124268531.93847      3175.9654         43.9004
 11 10 21 21  2 24.0000000  0 11G13G32G17G20G04G07G23G31G10G30G02
  20134448.1724  105807172.79848       738.9734         49.0004
  24889202.2344  130793815.07547     -2994.7424         43.0004
  24670370.648   129643685.275 6     -3167.770          41.600
  22231735.0704  116828909.68648     -2772.7704         48.3004
  20879134.3284  109720524.83048       468.3794         50.2004
  23904535.445   125619294.126 7      3711.762          44.400
  20466460.4694  107552085.88248     -1043.6484         51.9004
  25392606.172   133438988.638 6     -3294.547          40.000
  21838849.7424  114764114.89048      2600.2704         49.0004
  24869403.3444  130689611.25446      -409.9774         39.2004
  23646917.2194  124265356.06847      3175.9844         43.6004
 11 10 21 21  2 25.0000000  0 11G13G32G17G20G04G07G23G31G10G30G02
  20134307.5944  105806434.37148       738.0744         48.8004
  24889771.9534  130796810.31747     -2995.3324         42.9004
  24670973.906   129646853.370 6     -3168.215          41.300
  22232262.4304  116831682.91548     -2773.4344         48.2004
  20879045.0164  109720057.07348       467.3444         50.5004
  23903829.406   125615582.756 7      3711.359          44.400
  20466659.2504  107553130.06248     -1044.5394         52.0004
  25393233.266   133442283.631 6     -3295.195          40.200
  21838354.7114  114761515.00548      2599.6764         48.5004
  24869481.7114  130690021.97146      -411.2424         39.2004
  23646312.3054  124262180.54147      3175.3244         43.5004
 11 10 21 21  2 26.0000000  0 11G13G32G17G20G04G07G23G31G10G30G02
  20134166.8914  105805696.42148       737.8754         49.1004
  24890342.6254  130799805.55247     -2995.1334         43.4004
  24671577.070   129650021.466 6     -3167.930          41.100
  22232790.5474  116834456.33448     -2773.3364         48.4004
  20878956.2344  109719589.90448       467.0554         50.7004
  23903122.953   125611871.423 7      3711.566          44.500
  20466858.0864  107554174.62248     -1044.6214         52.0004
  25393860.602   133445578.773 6     -3295.051          39.500
  21837859.7974  114758915.32648      2599.6914         48.6004
  24869559.6564  130690433.26346      -411.5864         39.2004
  23645708.4384  124259005.25447      3175.2894         43.9004
 11 10 21 21  2 27.0000000  0 11G13G32G17G20G04G07G23G31G10G30G02
  20134026.6884  105804959.03448       737.4104         49.1004
  24890912.0234  130802800.83347     -2995.0474         43.9004
  24672180.141   129653189.659 6     -3167.937          41.000
  22233318.4534  116837230.01548     -2773.5164         48.3004
  20878867.1644  109719123.40448       466.5004         50.3004
  23902417.109   125608160.247 7      3711.379          44.800
  20467056.8364  107555219.63548     -1045.0004         51.8004
  25394487.734   133448874.194 6     -3295.156          40.100
  21837365.4694  114756315.89948      2599.5904         48.9004
  24869638.4774  130690845.22346      -412.1294         39.0004
  23645104.5554  124255830.28747      3175.0004         43.9004
 11 10 21 21  2 28.0000000  0 11G13G32G17G20G04G07G23G31G10G30G02
  20133886.3284  105804222.31148       736.4804         49.3004
  24891481.5864  130805796.31847     -2995.4374         43.4004
  24672782.594   129656358.041 6     -3168.371          41.400
  22233845.8444  116840004.10948     -2774.2114         48.2004
  20878778.4614  109718657.66448       465.3914         49.7004
  23901710.992   125604449.311 7      3710.969          45.000
  20467255.6804  107556265.22948     -1045.7734         51.6004
  25395114.633   133452169.905 6     -3295.734          40.300
  21836870.8204  114753716.89548      2598.9184         48.6004
  24869716.6024  130691257.94046      -412.9924         39.1004
  23644499.7814  124252655.73747      3174.4534         43.6004
 11 10 21 21  2 29.0000000  0 11G13G32G17G20G04G07G23G31G10G30G02
  20133746.1484  105803486.00448       736.1454         48.9004
  24892051.7034  130808791.78047     -2995.3794         43.0004
  24673385.625   129659526.392 6     -3168.289          41.600
  22234374.1094  116842778.31548     -2774.2424         48.0004
  20878690.2664  109718192.43748       464.9884         49.9004
  23901004.539   125600738.353 7      3710.965          44.500
  20467454.4924  107557311.14148     -1046.0234         51.2004
  25395742.047   133455465.810 6     -3295.945          39.900
  21836376.2814  114751118.01248      2598.8204         48.7004
  24869795.4304  130691671.19046      -413.4064         37.9004
  23643895.7974  124249481.36147      3174.3364         43.4004
 11 10 21 21  2 30.0000000  0 11G13G32G17G20G04G07G23G31G10G30G02
  20133606.6724  105802750.31848       735.4384         49.1004
  24892621.8524  130811787.36347     -2995.6874         42.3004
  24673987.977   129662694.866 7     -3168.500          42.100
  22234902.1644  116845552.87848     -2774.7384         48.0004
  20878601.8834  109717727.95048       464.1884         50.4004
  23900298.570   125597027.600 7      3710.699          44.700
  20467654.1334  107558357.60048     -1046.6994         50.9004
  25396369.578   133458762.004 6     -3296.320          39.400
  21835881.6954  114748519.47248      2598.4534         48.9004
  24869873.0704  130692085.17846      -414.2114         38.0004
  23643292.0314  124246307.38647      3173.7774         43.0004
 11 10 21 21  2 31.0000000  0 11G13G32G17G20G04G07G23G31G10G30G02
  20133466.5314  105802015.15248       734.9534         49.0004
  24893192.3594  130814783.02247     -2995.7974         42.4004
  24674591.391   129665863.417 7     -3168.570          42.100
  22235429.9844  116848327.69547     -2775.0044         47.9004
  20878513.6884  109717264.10948       463.5124         50.6004
  23899593.102   125593316.960 7      3710.531          44.300
  20467853.1024  107559404.48348     -1047.2034         51.2004
  25396996.719   133462058.446 6     -3296.746          39.500
  21835387.7814  114745921.18548      2598.1294         48.4004
  24869951.8444  130692499.85046      -415.0044         38.8004
  23642688.2194  124243133.70047      3173.3984         43.3004
 11 10 21 21  2 32.0000000  0 11G13G32G17G20G04G07G23G31G10G30G02
  20133326.6954  105801280.36648       734.6094         49.4004
  24893761.9304  130817778.57747     -2995.4614         42.7004
  24675194.391   129669031.867 7     -3168.344          42.200
  22235957.9144  116851102.59048     -2774.9264         48.2004
  20878425.3674  109716800.76948       463.1054         50.7004
  23898886.797   125589606.253 7      3710.758          44.100
  20468052.8054  107560451.64148     -1047.3164         51.6004
  25397624.320   133465354.945 6     -3296.633          39.500
  21834892.8754  114743323.01248      2598.1764         48.4004
  24870031.5164  130692914.98946      -415.3164         38.7004
  23642083.9774  124239960.14147      3173.4734         43.2004
 11 10 21 21  2 33.0000000  0 11G13G32G17G20G04G07G23G31G10G30G02
  20133187.0234  105800546.29148       733.8164         49.5004
  24894332.5004  130820774.36747     -2995.9104         42.6004
  24675797.500   129672200.575 6     -3168.855          41.900
  22236485.8914  116853877.94348     -2775.4884         48.0004
  20878337.4534  109716338.25848       462.1884         50.2004
  23898180.469   125585895.876 7      3710.230          44.300
  20468252.1414  107561499.40648     -1048.0434         51.0004
  25398251.797   133468651.841 6     -3297.039          39.800
  21834398.3914  114740725.26948      2597.5554         48.4004
  24870111.5394  130693330.91946      -416.3794         39.4004
  23641480.0634  124236787.06347      3172.9064         42.7004
 11 10 21 21  2 34.0000000  0 11G13G32G17G20G04G07G23G31G10G30G02
  20133047.4614  105799812.66548       733.3874         49.2004
  24894902.3594  130823770.08947     -2995.7234         43.1004
  24676400.797   129675369.214 7     -3168.613          42.300
  22237014.0084  116856653.43347     -2775.5944         47.9004
  20878249.4064  109715876.28548       461.7384         50.3004
  23897474.891   125582185.474 7      3710.379          44.800
  20468451.3364  107562547.53048     -1048.2894         51.1004
  25398878.859   133471948.864 6     -3297.062          39.800
  21833904.2194  114738127.65948      2597.5864         48.5004
  24870190.1954  130693747.41946      -416.7584         38.6004
  23640876.2034  124233614.16047      3172.8954         43.1004
 11 10 21 21  2 35.0000000  0 11G13G32G17G20G04G07G23G31G10G30G02
  20132907.7584  105799079.61148       732.8554         48.9004
  24895471.8204  130826765.97147     -2995.9534         43.1004
  24677003.648   129678538.002 7     -3168.793          42.300
  22237542.2424  116859429.25047     -2775.9264         47.8004
  20878161.7424  109715415.03448       460.9884         50.3004
  23896767.984   125578475.261 7      3710.188          44.700
  20468651.2194  107563596.14548     -1048.8714         51.2004
  25399506.766   133475246.205 6     -3297.387          39.400
  21833409.9144  114735530.40248      2597.1524         48.6004
  24870270.1644  130694164.62946      -417.6134         38.5004
  23640272.8594  124230441.62847      3172.4224         42.8004
 11 10 21 21  2 36.0000000  0 11G13G32G17G20G04G07G23G31G10G30G02
  20132768.5164  105798347.13948       732.0594         48.6004
  24896042.7894  130829761.93447     -2996.1484         42.9004
  24677606.438   129681706.876 7     -3169.082          42.700
  22238070.7034  116862205.33647     -2776.4414         47.6004
  20878074.1564  109714954.43948       460.1024         50.1004
  23896062.211   125574765.183 7      3709.820          44.600
  20468850.5554  107564645.22248     -1049.5004         51.0004
  25400134.156   133478543.793 6     -3297.898          39.200
  21832915.7974  114732933.40248      2596.7584         48.5004
  24870349.3834  130694582.46646      -418.3914         38.1004
  23639668.5554  124227269.42647      3171.8834         42.4004
 11 10 21 21  2 37.0000000  0 11G13G32G17G20G04G07G23G31G10G30G02
  20132629.3284  105797615.13648       731.6644         48.7004
  24896612.6174  130832757.92147     -2996.1804         42.3004
  24678209.570   129684875.786 7     -3169.031          42.300
  22238599.1174  116864981.62847     -2776.4734         47.5004
  20877986.7114  109714494.46948       459.5514         49.5004
  23895356.883   125571055.135 7      3709.957          45.200
  20469050.3754  107565694.70848     -1049.7344         50.9004
  25400761.242   133481841.595 6     -3297.918          38.900
  21832421.8204  114730336.63248      2596.5984         48.8004
  24870428.5164  130695000.98746      -418.8874         38.5004
  23639065.7344  124224097.44647      3171.7114         43.1004
 11 10 21 21  2 38.0000000  0 11G13G32G17G20G04G07G23G31G10G30G02
  20132489.8364  105796883.78848       731.1134         48.6004
  24897182.6254  130835754.04947     -2996.1954         42.6004
  24678812.523   129688044.853 7     -3169.105          42.300
  22239127.4454  116867758.30147     -2776.7624         47.7004
  20877899.3594  109714035.29048       458.8134         49.4004
  23894650.758   125567345.373 7      3709.734          45.000
  20469249.8134  107566744.73948     -1050.2344         51.1004
  25401389.289   133485139.702 6     -3298.273          39.300
  21831927.2894  114727740.24848      2596.2274         49.0004
  24870508.7114  130695420.18846      -419.5664         38.8004
  23638462.2974  124220925.92947      3171.3834         43.0004
 11 10 21 21  2 39.0000000  0 11G13G32G17G20G04G07G23G31G10G30G02
  20132351.1024  105796152.90548       730.6454         48.4004
  24897752.6724  130838750.19347     -2996.0354         42.4004
  24679415.844   129691213.951 6     -3169.074          41.800
  22239656.1254  116870535.15447     -2776.9224         47.8004
  20877812.0314  109713576.63448       458.4144         49.1004
  23893944.633   125563635.655 7      3709.664          44.800
  20469449.6884  107567795.13748     -1050.5984         51.2004
  25402016.906   133488438.009 6     -3298.266          39.400
  21831433.7814  114725144.04248      2596.1024         49.2004
  24870588.8834  130695840.02046      -420.0044         38.9004
  23637858.9454  124217754.58947      3171.1844         42.7004
 11 10 21 21  2 40.0000000  0 11G13G32G17G20G04G07G23G31G10G30G02
  20132211.8914  105795422.71848       729.6374         48.7004
  24898322.5784  130841746.56347     -2996.7234         42.2004
  24680018.805   129694383.220 7     -3169.633          42.400
  22240184.3134  116873312.40247     -2777.5664         47.9004
  20877724.8834  109713118.83948       457.1804         49.4004
  23893238.836   125559926.175 7      3709.113          44.700
  20469649.8914  107568846.12748     -1051.5354         51.2004
  25402644.805   133491736.686 6     -3299.094          39.800
  21830939.7114  114722548.23548      2595.3634         49.5004
  24870668.4534  130696260.60146      -421.0904         38.1004
  23637255.4844  124214583.74047      3170.3404         42.6004
 11 10 21 21  2 41.0000000  0 11G13G32G17G20G04G07G23G31G10G30G02
  20132073.1564  105794692.92648       729.6564         48.6004
  24898892.8594  130844742.84547     -2996.1254         42.8004
  24680621.828   129697552.440 7     -3169.070          42.700
  22240712.9144  116876089.78847     -2777.3714         47.9004
  20877637.7974  109712661.55048       457.0784         49.6004
  23892532.875   125556216.675 7      3709.594          45.200
  20469850.1334  107569897.42948     -1051.3954         51.3004
  25403272.141   133495035.448 6     -3298.625          40.000
  21830445.6414  114719952.55748      2595.6644         49.7004
  24870748.8284  130696681.77146      -421.4024         37.7004
  23636651.6484  124211413.04447      3170.6954         42.8004
 11 10 21 21  2 42.0000000  0 11G13G32G17G20G04G07G23G31G10G30G02
  20131934.4064  105793963.69948       729.0084         49.0004
  24899463.2664  130847739.22747     -2996.2894         43.3004
  24681225.008   129700721.763 7     -3169.262          42.500
  22241241.4534  116878867.44547     -2777.6844         47.8004
  20877550.7584  109712204.91448       456.4264         49.8004
  23891826.922   125552507.309 7      3709.508          45.600
  20470050.1484  107570949.18548     -1051.8794         51.6004
  25403900.516   133498334.492 6     -3299.066          39.700
  21829951.7974  114717357.17748      2595.3634         49.8004
  24870829.1564  130697103.59846      -422.0124         38.0004
  23636048.3284  124208242.65647      3170.3054         43.1004
 11 10 21 21  2 43.0000000  0 11G13G32G17G20G04G07G23G31G10G30G02
  20131795.6334  105793235.00848       728.2584         49.3004
  24900033.6334  130850735.69847     -2996.6914         43.7004
  24681827.938   129703891.154 7     -3169.645          42.800
  22241769.7424  116881645.39847     -2778.1914         47.8004
  20877464.4384  109711748.99548       455.3834         50.0004
  23891121.172   125548798.096 7      3709.133          45.600
  20470250.3134  107572001.43348     -1052.7074         51.8004
  25404527.938   133501633.778 6     -3299.551          39.900
  21829457.8134  114714762.08248      2594.7854         49.7004
  24870909.1174  130697526.07446      -422.9304         38.7004
  23635445.5004  124205072.59647      3169.7274         43.6004
 11 10 21 21  2 44.0000000  0 11G13G32G17G20G04G07G23G31G10G30G02
  20131656.8054  105792506.94248       727.8134         49.5004
  24900603.9304  130853732.27947     -2996.6604         43.2004
  24682431.320   129707060.663 7     -3169.508          42.200
  22242299.1254  116884423.64947     -2778.3954         47.6004
  20877377.9144  109711293.76048       454.8954         49.6004
  23890415.352   125545089.072 7      3708.969          45.000
  20470450.5234  107573054.16348     -1052.9614         51.6004
  25405155.797   133504933.353 6     -3299.707          40.000
  21828963.9774  114712167.30348      2594.6764         49.6004
  24870990.1024  130697949.30046      -423.6604         38.6004
  23634842.6484  124201902.90647      3169.5314         43.9004
 11 10 21 21  2 45.0000000  0 11G13G32G17G20G04G07G23G31G10G30G02
  20131518.4064  105791779.26748       727.2274         49.6004
  24901173.8674  130856728.78347     -2996.6994         42.4004
  24683033.992   129710230.112 7     -3169.633          42.300
  22242827.4924  116887202.02547     -2778.7154         47.8004
  20877291.0784  109710839.02948       454.1994         49.8004
  23889709.305   125541379.989 7      3708.879          45.800
  20470650.9844  107574107.18948     -1053.4414         51.1004
  25405783.664   133508233.046 6     -3299.937          40.400
  21828470.2734  114709572.63448      2594.3594         49.9004
  24871070.6094  130698372.96846      -424.2034         39.2004
  23634239.1414  124198733.36747      3169.2974         43.7004
 11 10 21 21  2 46.0000000  0 11G13G32G17G20G04G07G23G31G10G30G02
  20131380.3984  105791052.20248       727.0904         49.3004
  24901744.1954  130859725.43947     -2996.2584         42.8004
  24683637.453   129713399.728 7     -3169.312          42.300
  22243356.5474  116889980.73748     -2778.5044         48.0004
  20877204.7504  109710385.04948       454.0474         49.7004
  23889003.703   125537671.150 7      3709.129          45.500
  20470851.8914  107575160.76548     -1053.5274         50.9004
  25406412.117   133511533.035 6     -3299.781          40.500
  21827976.6414  114706978.32848      2594.5204         49.4004
  24871152.1174  130698797.40746      -424.4024         39.8004
  23633636.0944  124195564.23747      3169.1684         44.0004
 11 10 21 21  2 47.0000000  0 11G13G32G17G20G04G07G23G31G10G30G02
  20131241.9774  105790325.72248       726.1764         49.3004
  24902315.0084  130862722.19946     -2996.7464         41.7004
  24684240.625   129716569.419 6     -3169.625          41.600
  22243885.5004  116892759.77147     -2779.2274         47.8004
  20877118.3054  109709931.76448       452.9534         49.7004
  23888298.180   125533962.429 7      3708.660          45.500
  20471052.3134  107576214.79948     -1054.2974         50.9004
  25407039.711   133514833.296 6     -3300.371          40.400
  21827483.2664  114704384.29448      2593.9454         49.4004
  24871232.5944  130699222.51746      -425.4774         39.3004
  23633033.4144  124192395.40347      3168.6644         44.3004
 11 10 21 21  2 48.0000000  0 11G13G32G17G20G04G07G23G31G10G30G02
  20131103.9064  105789599.79548       725.5314         49.2004
  24902885.3674  130865719.03747     -2996.9844         42.3004
  24684843.891   129719739.228 6     -3169.902          41.500
  22244414.1644  116895539.05348     -2779.6134         48.0004
  20877032.1484  109709479.15348       452.1374         50.2004
  23887592.664   125530253.872 7      3708.426          45.400
  20471252.8054  107577269.28948     -1054.8284         50.8004
  25407667.797   133518133.814 6     -3300.625          40.600
  21826989.4224  114701790.57848      2593.5204         49.4004
  24871313.0944  130699648.35046      -426.1684         39.4004
  23632430.3674  124189226.92647      3168.1804         44.8004
 11 10 21 21  2 49.0000000  0 11G13G32G17G20G04G07G23G31G10G30G02
  20130965.7814  105788874.34748       725.3794         49.7004
  24903455.3204  130868715.89347     -2996.8054         42.6004
  24685447.414   129722909.027 6     -3169.586          41.700
  22244943.3984  116898318.54447     -2779.5274         47.9004
  20876945.7974  109709027.10848       451.8714         50.3004
  23886886.461   125526545.359 7      3708.766          44.900
  20471453.5864  107578324.19048     -1054.9734         50.8004
  25408296.609   133521434.524 6     -3300.609          40.600
  21826495.8284  114699197.06648      2593.5434         48.7004
  24871394.2274  130700074.71946      -426.5314         39.8004
  23631827.7974  124186058.68447      3168.2544         44.7004
 11 10 21 21  2 50.0000000  0 11G13G32G17G20G04G07G23G31G10G30G02
  20130827.8444  105788149.53648       724.2734         50.2004
  24904025.1174  130871712.89047     -2997.1844         42.0004
  24686050.328   129726078.977 7     -3170.078          42.000
  22245472.5474  116901098.39647     -2780.3094         47.8004
  20876860.5164  109708575.81448       450.6524         50.3004
  23886181.016   125522837.076 7      3707.973          45.500
  20471654.1804  107579379.59548     -1055.8634         50.8004
  25408924.688   133524735.560 6     -3301.539          40.500
  21826002.5944  114696603.88348      2592.8484         48.5004
  24871474.7974  130700501.84546      -427.7304         39.9004
  23631224.0394  124182890.84747      3167.3284         44.5004
 11 10 21 21  2 51.0000000  0 11G13G32G17G20G04G07G23G31G10G30G02
  20130690.1954  105787425.14348       723.9264         50.2004
  24904596.0314  130874709.88947     -2997.2274         42.4004
  24686653.414   129729248.907 7     -3170.141          42.300
  22246001.2344  116903878.37447     -2780.3164         47.9004
  20876774.2664  109708125.07948       450.1844         50.5004
  23885474.820   125519128.766 7      3707.938          45.500
  20471855.1024  107580435.35048     -1056.1134         50.6004
  25409551.602   133528036.691 6     -3301.437          40.500
  21825509.4224  114694010.87448      2592.7304         49.0004
  24871556.5234  130700929.48746      -428.0594         39.5004
  23630621.7894  124179723.18747      3167.2854         44.7004
 11 10 21 21  2 52.0000000  0 11G13G32G17G20G04G07G23G31G10G30G02
  20130552.2504  105786701.35648       723.4924         49.7004
  24905166.1884  130877706.97947     -2997.2384         42.6004
  24687256.250   129732418.952 7     -3170.148          42.500
  22246530.2584  116906658.66648     -2780.4494         48.0004
  20876688.8984  109707675.04848       449.7074         50.5004
  23884769.867   125515420.669 7      3707.996          45.200
  20472056.3524  107581491.58648     -1056.4224         50.8004
  25410180.773   133531338.159 6     -3301.652          40.500
  21825016.0164  114691418.16848      2592.5474         49.3004
  24871637.7974  130701357.86046      -428.7734         39.4004
  23630018.9844  124176555.86847      3167.2034         45.0004
 11 10 21 21  2 53.0000000  0 11G13G32G17G20G04G07G23G31G10G30G02
  20130414.8444  105785978.05548       723.1294         49.2004
  24905736.7424  130880704.05246     -2996.9184         41.7004
  24687859.891   129735589.004 7     -3169.898          42.500
  22247059.3204  116909439.18647     -2780.5124         47.8004
  20876603.4064  109707225.62948       449.2584         50.3004
  23884064.336   125511712.630 7      3708.129          44.800
  20472257.2734  107582548.24148     -1056.6874         51.0004
  25410808.859   133534639.788 6     -3301.543          40.500
  21824522.5394  114688825.68248      2592.4844         48.8004
  24871720.3284  130701786.84246      -429.1524         39.6004
  23629415.8594  124173388.82147      3167.0744         44.6004
 11 10 21 21  2 54.0000000  0 11G13G32G17G20G04G07G23G31G10G30G02
  20130276.8914  105785255.36448       722.6334         49.5004
  24906307.4844  130883701.31246     -2997.1254         41.6004
  24688463.266   129738759.225 6     -3170.020          41.900
  22247588.2034  116912220.03548     -2780.9024         48.0004
  20876517.5944  109706776.96648       448.4694         50.6004
  23883358.281   125508004.802 7      3707.871          45.100
  20472458.4304  107583605.41348     -1057.2344         51.0004
  25411437.242   133537941.709 6     -3301.891          40.600
  21824029.2814  114686233.54048      2592.2234         49.2004
  24871801.9614  130702216.55746      -429.8794         39.4004
  23628813.0314  124170222.17747      3166.6914         43.9004
 11 10 21 21  2 55.0000000  0 11G13G32G17G20G04G07G23G31G10G30G02
  20130140.2034  105784533.23748       721.9694         49.6004
  24906876.9454  130886698.65046     -2997.2814         41.3004
  24689066.195   129741929.538 6     -3170.254          41.800
  22248117.8754  116915001.14348     -2781.1294         48.2004
  20876432.8914  109706328.92348       447.8484         51.0004
  23882653.141   125504297.079 7      3707.750          45.400
  20472659.5634  107584663.04148     -1057.6914         51.2004
  25412065.758   133541243.910 6     -3302.168          40.800
  21823535.9614  114683641.67948      2591.8754         49.1004
  24871883.9614  130702646.94046      -430.6954         38.4004
  23628210.6954  124167055.83247      3166.2974         43.7004
 11 10 21 21  2 56.0000000  0 11G13G32G17G20G04G07G23G31G10G30G02
  20130002.7584  105783811.66948       721.3444         49.5004
  24907447.6484  130889696.05746     -2997.3014         41.0004
  24689670.203   129745099.894 6     -3170.223          41.500
  22248647.0784  116917782.53548     -2781.3524         48.2004
  20876347.6564  109705881.57248       447.1254         50.7004
  23881947.406   125500589.501 7      3707.648          44.100
  20472861.3134  107585721.09948     -1058.1174         51.3004
  25412694.172   133544546.339 6     -3302.277          40.000
  21823042.9924  114681050.09848      2591.6294         48.3004
  24871965.8984  130703077.92946      -431.1054         38.0004
  23627608.6884  124163889.79447      3166.0634         44.3004
 11 10 21 21  2 57.0000000  0 11G13G32G17G20G04G07G23G31G10G30G02
  20129865.2034  105783090.74648       720.6094         49.7004
  24908017.7194  130892693.66646     -2997.7304         41.4004
  24690273.016   129748270.470 6     -3170.648          41.300
  22249176.2814  116920564.32548     -2781.9924         48.3004
  20876262.4844  109705434.99948       446.1564         51.3004
  23881241.688   125496882.168 7      3707.234          44.500
  20473062.6174  107586779.75948     -1058.9024         51.6004
  25413322.594   133547849.145 6     -3302.891          40.000
  21822550.0864  114678458.89848      2590.9804         48.8004
  24872048.3594  130703509.75846      -432.1484         38.3004
  23627005.9774  124160724.21547      3165.3244         43.9004
 11 10 21 21  2 58.0000000  0 11G13G32G17G20G04G07G23G31G10G30G02
  20129728.1414  105782370.20248       719.9494         49.9004
  24908588.6804  130895691.15046     -2997.8404         40.9004
  24690876.422   129751440.930 6     -3170.824          41.100
  22249705.4844  116923346.19148     -2782.3054         48.0004
  20876177.7664  109704988.90248       445.4494         51.0004
  23880536.203   125493174.783 7      3707.082          44.600
  20473264.1724  107587838.68548     -1059.4734         51.5004
  25413951.297   133551152.002 6     -3303.344          40.200
  21822056.7344  114675867.79048      2590.6414         49.0004
  24872130.6644  130703942.07046      -432.8754         38.6004
  23626403.7114  124157558.76347      3164.9024         44.1004
 11 10 21 21  2 59.0000000  0 11G13G32G17G20G04G07G23G31G10G30G02
  20129591.3524  105781650.23048       719.7034         49.7004
  24909160.0164  130898688.74846     -2997.5744         41.4004
  24691480.109   129754611.497 6     -3170.605          41.600
  22250234.7814  116926128.36248     -2782.2894         48.0004
  20876093.0634  109704543.49048       445.1414         51.4004
  23879831.297   125489467.574 7      3707.184          44.400
  20473465.6644  107588898.10248     -1059.6214         51.6004
  25414579.883   133554455.142 6     -3303.227          40.000
  21821563.7814  114673277.00248      2590.6524         49.1004
  24872212.5084  130704375.04146      -433.1414         38.9004
  23625801.5394  124154393.62247      3165.0274         44.5004
 11 10 21 21  3  0.0000000  0 11G13G32G17G20G04G07G23G31G10G30G02
  20129454.0314  105780930.74548       719.0354         50.0004
  24909729.3364  130901686.40046     -2997.8714         41.7004
  24692082.641   129757782.066 7     -3170.797          42.000
  22250764.5864  116928910.73948     -2782.6484         48.1004
  20876008.3444  109704098.70748       444.2664         51.2004
  23879125.641   125485760.425 7      3706.855          44.500
  20473667.2734  107589957.89548     -1060.2154         51.7004
  25415208.742   133557758.472 6     -3303.469          40.000
  21821070.7424  114670686.40248      2590.3244         49.3004
  24872295.4144  130704808.66146      -434.1294         39.2004
  23625199.4304  124151228.78247      3164.6134         44.5004
 11 10 21 21  3  1.0000000  0 11G13G32G17G20G04G07G23G31G10G30G02
  20129317.4844  105780211.81848       718.8874         49.7004
  24910300.5084  130904684.07747     -2997.5434         42.6004
  24692686.445   129760952.742 7     -3170.465          42.000
  22251293.9534  116931693.39947     -2782.5624         47.3004
  20875923.8444  109703654.62248       443.9654         50.7004
  23878419.805   125482053.409 7      3707.164          44.900
  20473869.5864  107591018.16248     -1060.3554         51.6004
  25415837.047   133561062.013 6     -3303.426          39.600
  21820577.8984  114668096.10648      2590.4144         49.2004
  24872378.0474  130705242.87846      -434.4144         38.8004
  23624597.0474  124148064.23147      3164.7074         43.8004
 11 10 21 21  3  2.0000000  0 11G13G32G17G20G04G07G23G31G10G30G02
  20129180.7274  105779493.56348       718.0664         49.3004
  24910870.9614  130907681.99347     -2997.8754         43.0004
  24693289.453   129764123.632 7     -3170.840          42.200
  22251823.4064  116934476.45947     -2783.0864         47.4004
  20875839.3754  109703211.29348       443.0554         50.8004
  23877714.406   125478346.651 7      3706.758          44.900
  20474071.1954  107592078.99948     -1060.9884         51.6004
  25416465.266   133564366.002 6     -3304.082          39.300
  21820085.0004  114665506.20648      2589.7974         49.4004
  24872460.3674  130705677.90146      -435.2034         39.0004
  23623994.9384  124144900.14847      3164.0204         44.1004
 11 10 21 21  3  3.0000000  0 11G13G32G17G20G04G07G23G31G10G30G02
  20129043.8524  105778775.73748       717.6294         49.8004
  24911441.5864  130910679.84247     -2997.8094         42.9004
  24693892.914   129767294.490 6     -3170.871          41.900
  22252353.2194  116937259.65747     -2783.1564         47.7004
  20875755.1254  109702768.52548       442.5434         51.1004
  23877009.453   125474639.899 7      3706.789          44.700
  20474273.1174  107593140.17348     -1061.3164         51.7004
  25417094.266   133567670.043 6     -3304.008          39.000
  21819592.1884  114662916.44648      2589.7584         49.3004
  24872543.2894  130706113.48646      -435.6874         39.6004
  23623393.0634  124141736.23547      3163.8594         43.9004
 11 10 21 21  3  4.0000000  0 11G13G32G17G20G04G07G23G31G10G30G02
  20128907.5634  105778058.52548       716.9224         49.5004
  24912011.6334  130913677.85147     -2998.0274         42.7004
  24694497.063   129770465.430 6     -3170.992          41.700
  22252883.0004  116940043.19148     -2783.6454         48.2004
  20875671.1884  109702326.46048       441.7664         51.0004
  23876304.117   125470933.350 7      3706.512          44.700
  20474475.2734  107594201.86548     -1061.9304         51.7004
  25417722.656   133570974.417 6     -3304.484          38.600
  21819099.5704  114660327.05348      2589.2504         49.5004
  24872626.7734  130706549.79746      -436.6174         39.2004
  23622790.9064  124138572.71347      3163.4344         44.2004
 11 10 21 21  3  5.0000000  0 11G13G32G17G20G04G07G23G31G10G30G02
  20128771.4534  105777341.84748       716.2584         49.5004
  24912582.0474  130916675.90347     -2998.2544         42.8004
  24695099.602   129773636.440 6     -3171.227          41.600
  22253412.8364  116942826.98048     -2784.1134         48.4004
  20875587.1884  109701885.07948       441.0394         51.0004
  23875599.023   125467226.914 7      3706.230          44.500
  20474677.0944  107595263.98048     -1062.4734         51.6004
  25418351.375   133574279.008 6     -3304.855          38.100
  21818606.5634  114657737.88148      2588.9264         49.7004
  24872708.7504  130706986.77246      -437.5394         39.2004
  23622188.9774  124135409.46947      3162.9964         43.8004
 11 10 21 21  3  6.0000000  0 11G13G32G17G20G04G07G23G31G10G30G02
  20128635.3444  105776625.52148       715.8834         49.6004
  24913152.4144  130919673.83347     -2998.1024         42.5004
  24695702.922   129776807.363 6     -3171.129          41.800
  22253942.3834  116945610.83848     -2784.1874         48.1004
  20875503.1414  109701444.14748       440.5044         50.2004
  23874893.547   125463520.398 7      3706.371          44.600
  20474879.1094  107596326.35048     -1062.7234         51.7004
  25418980.117   133577583.652 6     -3304.820          38.400
  21818114.2034  114655148.80048      2588.8524         49.5004
  24872792.4224  130707424.14646      -437.9024         39.1004
  23621586.9454  124132246.34247      3162.9264         43.9004
 11 10 21 21  3  7.0000000  0 11G13G32G17G20G04G07G23G31G10G30G02
  20128498.9844  105775909.86948       715.4964         49.8004
  24913723.1884  130922671.98247     -2998.1484         42.7004
  24696306.758   129779978.484 7     -3171.090          42.000
  22254472.5004  116948395.06747     -2784.2974         47.9004
  20875419.2114  109701004.02348       439.7734         50.4004
  23874187.664   125459814.165 7      3706.168          44.600
  20475081.7504  107597389.31948     -1063.1604         51.0004
  25419608.930   133580888.667 6     -3305.031          38.300
  21817621.4844  114652560.12648      2588.6134         50.0004
  24872875.9694  130707862.39146      -438.6134         38.8004
  23620985.2034  124129083.69947      3162.5044         43.9004
 11 10 21 21  3  8.0000000  0 11G13G32G17G20G04G07G23G31G10G30G02
  20128362.5784  105775194.78348       714.7194         49.7004
  24914293.6024  130925670.18847     -2998.3874         43.0004
  24696910.250   129783149.667 6     -3171.312          41.800
  22255002.1024  116951179.58548     -2784.7384         48.1004
  20875335.7584  109700564.53148       439.1294         50.3004
  23873482.336   125456108.044 7      3705.945          44.700
  20475283.9304  107598452.72748     -1063.7034         50.9004
  25420238.844   133584193.932 6     -3305.508          38.600
  21817129.0474  114649971.73448      2588.1844         50.1004
  24872959.7344  130708301.24246      -439.2664         39.0004
  23620383.9144  124125921.34547      3162.1954         43.9004
 11 10 21 21  3  9.0000000  0 11G13G32G17G20G04G07G23G31G10G30G02
  20128226.6024  105774480.22748       714.2194         49.3004
  24914863.6954  130928668.49747     -2998.4534         43.6004
  24697513.742   129786320.944 7     -3171.324          42.100
  22255531.9384  116953964.36948     -2784.9574         48.1004
  20875252.1644  109700125.74348       438.3524         49.7004
  23872777.352   125452402.059 7      3705.797          44.900
  20475486.1644  107599516.60848     -1064.1374         51.2004
  25420867.680   133587499.455 6     -3305.781          38.600
  21816636.5394  114647383.60848      2587.9224         49.4004
  24873043.1954  130708740.78546      -439.9184         39.2004
  23619781.8914  124122759.31347      3161.7114         43.9004
 11 10 21 21  3 10.0000000  0 11G13G32G17G20G04G07G23G31G10G30G02
  20128090.7114  105773766.20248       713.5124         49.6004
  24915434.7894  130931666.81647     -2998.5864         43.7004
  24698117.125   129789492.257 6     -3171.551          41.400
  22256061.5554  116956749.38848     -2785.3834         48.1004
  20875169.0234  109699687.56748       437.6484         49.8004
  23872072.453   125448696.175 7      3705.680          44.700
  20475688.6804  107600580.89148     -1064.7194         51.0004
  25421496.625   133590805.189 6     -3306.184          38.600
  21816144.1884  114644795.73248      2587.4884         49.3004
  24873127.6334  130709180.90346      -440.6874         39.7004
  23619179.8754  124119597.53247      3161.3794         43.9004
 11 10 21 21  3 11.0000000  0 11G13G32G17G20G04G07G23G31G10G30G02
  20127955.0554  105773052.77248       713.1604         49.6004
  24916004.8054  130934665.27447     -2998.3874         43.2004
  24698720.938   129792663.681 6     -3171.426          41.100
  22256592.0004  116959534.70448     -2785.4964         48.0004
  20875085.4924  109699250.09648       437.1564         50.2004
  23871366.898   125444990.456 7      3705.684          45.400
  20475891.6334  107601645.68648     -1064.9694         51.1004
  25422126.219   133594111.192 6     -3306.285          38.600
  21815651.5004  114642208.15248      2587.4774         49.5004
  24873211.0234  130709621.78446      -441.1644         39.6004
  23618578.8984  124116436.13447      3161.2934         43.9004
 11 10 21 21  3 12.0000000  0 11G13G32G17G20G04G07G23G31G10G30G02
  20127819.3134  105772339.93048       712.5594         49.6004
  24916575.9534  130937663.84347     -2998.5554         43.7004
  24699324.047   129795835.235 6     -3171.547          41.700
  22257122.3444  116962320.34748     -2785.6484         48.1004
  20875002.6174  109698813.35548       436.4844         50.2004
  23870661.969   125441284.940 7      3705.516          44.900
  20476094.2034  107602710.98948     -1065.4884         51.5004
  25422755.000   133597417.470 6     -3306.344          39.000
  21815159.0864  114639620.92348      2587.1644         49.3004
  24873294.8984  130710063.33446      -441.7624         40.0004
  23617976.8204  124113275.10247      3161.0004         43.9004
 11 10 21 21  3 13.0000000  0 11G13G32G17G20G04G07G23G31G10G30G02
  20127683.8204  105771627.70348       711.9964         49.4004
  24917146.5234  130940662.57747     -2998.7704         43.5004
  24699927.867   129799006.924 6     -3171.641          41.700
  22257652.2034  116965106.33348     -2786.0984         48.3004
  20874919.6094  109698377.34248       435.7664         50.0004
  23869956.633   125437579.591 7      3705.293          45.100
  20476296.7734  107603776.79448     -1066.0554         51.6004
  25423384.609   133600724.088 6     -3306.805          39.200
  21814666.7584  114637034.01948      2586.7704         49.0004
  24873379.2274  130710505.65646      -442.5624         38.7004
  23617374.9224  124110114.46147      3160.5314         43.6004
 11 10 21 21  3 14.0000000  0 11G13G32G17G20G04G07G23G31G10G30G02
  20127548.5784  105770915.93048       711.4304         49.1004
  24917716.8754  130943661.26947     -2998.8124         43.2004
  24700531.172   129802178.638 6     -3171.820          41.600
  22258182.5864  116967892.47848     -2786.3484         48.5004
  20874836.9224  109697941.89548       435.0314         50.2004
  23869251.930   125433874.307 7      3705.141          45.200
  20476499.6024  107604842.97248     -1066.4844         51.5004
  25424013.727   133604030.838 6     -3306.934          39.400
  21814174.7114  114634447.30448      2586.5354         49.3004
  24873462.5394  130710948.53946      -443.3204         39.4004
  23616773.9144  124106954.01047      3160.2584         43.7004
 11 10 21 21  3 15.0000000  0 11G13G32G17G20G04G07G23G31G10G30G02
  20127413.2114  105770204.76648       710.9064         48.9004
  24918287.7974  130946660.10847     -2998.8914         43.1004
  24701134.547   129805350.449 6     -3171.852          40.900
  22258712.6254  116970678.96948     -2786.6724         48.5004
  20874754.1024  109697507.18948       434.4184         50.3004
  23868546.961   125430169.200 7      3704.984          45.100
  20476703.0234  107605909.64648     -1066.8674         51.1004
  25424643.641   133607337.899 6     -3307.223          39.800
  21813682.3594  114631860.90948      2586.2584         49.6004
  24873547.1484  130711392.13146      -444.0234         39.2004
  23616172.3364  124103793.98047      3159.8014         43.7004
 11 10 21 21  3 16.0000000  0 11G13G32G17G20G04G07G23G31G10G30G02
  20127277.8834  105769494.13548       710.2704         48.8004
  24918858.2584  130949659.00647     -2998.9844         43.0004
  24701738.516   129808522.336 6     -3172.062          40.900
  22259242.7974  116973465.68948     -2786.9264         48.4004
  20874671.3364  109697073.12948       433.6564         50.8004
  23867841.906   125426464.203 7      3704.848          45.600
  20476906.1954  107606976.75848     -1067.3794         51.3004
  25425272.734   133610645.199 6     -3307.418          39.300
  21813190.4224  114629274.78748      2585.8984         49.2004
  24873631.4144  130711836.35346      -444.6604         39.8004
  23615571.5084  124100634.20547      3159.5474         43.7004
 11 10 21 21  3 17.0000000  0 11G13G32G17G20G04G07G23G31G10G30G02
  20127143.0234  105768783.90548       709.9614         48.9004
  24919428.4144  130952657.85447     -2998.9414         43.2004
  24702342.023   129811694.148 6     -3171.867          41.100
  22259773.4304  116976252.55548     -2787.0084         48.4004
  20874589.0944  109696639.59648       433.2034         50.6004
  23867136.820   125422759.209 7      3704.922          45.600
  20477108.8524  107608044.19548     -1067.6604         51.4004
  25425901.664   133613952.602 6     -3307.590          39.500
  21812698.1884  114626688.80148      2585.8834         49.4004
  24873716.6564  130712281.12946      -445.2304         40.2004
  23614969.9534  124097474.64047      3159.4144         43.8004
 11 10 21 21  3 18.0000000  0 11G13G32G17G20G04G07G23G31G10G30G02
  20127007.7344  105768074.29348       709.3874         49.2004
  24919999.5864  130955656.80347     -2998.8754         43.5004
  24702945.211   129814866.094 6     -3171.863          40.600
  22260304.2114  116979039.73448     -2787.2384         48.8004
  20874506.7894  109696206.75148       432.5744         50.5004
  23866431.273   125419054.375 7      3704.879          45.100
  20477312.5234  107609112.13248     -1068.0704         51.7004
  25426530.773   133617260.286 6     -3307.738          39.400
  21812206.2504  114624103.13548      2585.6374         49.2004
  24873802.0004  130712726.58546      -445.6954         39.7004
  23614368.5704  124094315.40447      3159.1214         43.9004
 11 10 21 21  3 19.0000000  0 11G13G32G17G20G04G07G23G31G10G30G02
  20126872.8204  105767365.26248       708.8674         49.2004
  24920570.0004  130958655.88347     -2999.0824         43.6004
  24703549.594   129818038.180 6     -3172.094          41.100
  22260834.2424  116981827.22048     -2787.4924         48.5004
  20874424.1334  109695774.63248       431.8324         50.3004
  23865726.492   125415349.752 7      3704.734          44.600
  20477515.5474  107610180.57548     -1068.5864         51.2004
  25427159.750   133620568.272 6     -3307.914          39.400
  21811714.2424  114621517.80148      2585.2814         49.5004
  24873887.0084  130713172.78346      -446.4494         40.1004
  23613767.9454  124091156.57647      3158.7304         43.5004
 11 10 21 21  3 20.0000000  0 11G13G32G17G20G04G07G23G31G10G30G02
  20126737.9534  105766656.63648       708.3834         49.0004
  24921140.6094  130961654.89347     -2998.9844         43.2004
  24704152.625   129821210.151 6     -3172.008          41.300
  22261364.5864  116984614.83048     -2787.5944         48.5004
  20874342.0394  109695343.03448       431.4024         50.5004
  23865021.672   125411645.078 7      3704.715          44.600
  20477719.0784  107611249.31248     -1068.8634         51.7004
  25427789.344   133623876.313 6     -3308.062          39.500
  21811222.0864  114618932.58048      2585.1954         49.2004
  24873972.0004  130713619.43946      -446.8754         39.4004
  23613166.9144  124087997.86147      3158.6524         44.0004
 11 10 21 21  3 21.0000000  0 11G13G32G17G20G04G07G23G31G10G30G02
  20126603.1414  105765948.74048       707.4344         49.1004
  24921711.6644  130964654.15947     -2999.4654         42.6004
  24704756.742   129824382.400 6     -3172.410          41.500
  22261895.2664  116987402.92548     -2788.3874         48.5004
  20874259.9694  109694912.27448       430.3554         50.1004
  23864316.773   125407940.732 7      3704.191          44.700
  20477922.4614  107612318.68048     -1069.7464         51.5004
  25428419.273   133627184.797 6     -3308.711          39.600
  21810730.6884  114616347.82848      2584.4384         49.0004
  24874056.3204  130714066.97346      -448.0864         39.2004
  23612566.0864  124084839.67347      3157.9384         43.5004
 11 10 21 21  3 22.0000000  0 11G13G32G17G20G04G07G23G31G10G30G02
  20126468.4614  105765241.34348       707.1524         49.1004
  24922282.3594  130967653.46946     -2999.3874         40.9004
  24705360.313   129827554.699 6     -3172.406          41.900
  22262425.8444  116990191.19248     -2788.3364         48.5004
  20874178.1174  109694482.17148       429.7854         50.4004
  23863611.656   125404236.474 7      3704.336          44.600
  20478126.3204  107613388.46648     -1070.0164         51.3004
  25429048.781   133630493.491 6     -3308.832          39.900
  21810239.0474  114613763.30448      2584.3914         49.1004
  24874141.6954  130714515.09246      -448.3634         39.4004
  23611964.8444  124081681.77947      3157.7624         43.7004
 11 10 21 21  3 23.0000000  0 11G13G32G17G20G04G07G23G31G10G30G02
  20126334.0084  105764534.46148       706.4734         48.5004
  24922852.9694  130970652.79046     -2999.4964         41.2004
  24705963.719   129830726.978 6     -3172.473          41.900
  22262956.3834  116992979.69748     -2788.7344         48.3004
  20874096.5704  109694052.64348       429.0164         50.7004
  23862906.477   125400532.304 7      3703.938          44.700
  20478329.6644  107614458.64248     -1070.5904         51.7004
  25429678.406   133633802.359 6     -3309.164          39.900
  21809747.0634  114611179.00648      2584.0004         49.2004
  24874227.6254  130714963.87846      -449.2034         39.4004
  23611364.1564  124078524.13347      3157.2034         43.2004
 11 10 21 21  3 24.0000000  0 11G13G32G17G20G04G07G23G31G10G30G02
  20126199.6024  105763828.05548       706.2624         49.2004
  24923423.2344  130973652.13046     -2999.1994         41.3004
  24706567.563   129833899.291 6     -3172.223          41.700
  22263486.9774  116995768.40848     -2788.6094         48.2004
  20874014.9924  109693623.73848       428.7384         50.7004
  23862202.047   125396828.192 7      3704.211          44.000
  20478533.2034  107615529.22548     -1070.7384         51.8004
  25430308.609   133637111.431 6     -3309.016          39.800
  21809255.2974  114608594.92748      2584.0084         49.8004
  24874313.1954  130715413.23646      -449.4804         39.0004
  23610763.4384  124075366.75047      3157.3444         43.4004
 11 10 21 21  3 25.0000000  0 11G13G32G17G20G04G07G23G31G10G30G02
  20126065.3524  105763122.23848       705.5664         49.2004
  24923994.7114  130976651.57946     -2999.5434         41.9004
  24707171.484   129837071.723 7     -3172.477          42.100
  22264017.7734  116998557.43048     -2789.0944         48.4004
  20873933.4384  109693195.50748       427.9144         50.9004
  23861497.313   125393124.245 7      3703.934          44.500
  20478737.0474  107616600.27248     -1071.2304         52.0004
  25430938.406   133640420.777 6     -3309.395          40.000
  21808764.0164  114606011.14148      2583.6174         49.3004
  24874398.6724  130715863.30146      -450.3244         38.6004
  23610162.5784  124072209.71547      3156.8014         43.6004
 11 10 21 21  3 26.0000000  0 11G13G32G17G20G04G07G23G31G10G30G02
  20125931.0394  105762417.02348       704.9344         49.4004
  24924565.9534  130979651.17446     -2999.6414         41.3004
  24707775.313   129840244.272 6     -3172.461          41.700
  22264548.7274  117001346.77648     -2789.4734         48.4004
  20873852.2584  109692768.02548       427.1764         51.1004
  23860792.180   125389420.511 7      3703.625          44.600
  20478941.3444  107617671.84548     -1071.7384         51.9004
  25431568.344   133643730.399 6     -3309.766          39.700
  21808272.2194  114603427.71248      2583.3134         49.6004
  24874484.0554  130716314.08446      -451.1954         38.6004
  23609562.1414  124069053.02347      3156.5124         43.9004
 11 10 21 21  3 27.0000000  0 11G13G32G17G20G04G07G23G31G10G30G02
  20125796.8134  105761712.28248       704.4304         49.2004
  24925136.0944  130982650.75646     -2999.6524         41.5004
  24708378.750   129843416.833 7     -3172.516          42.000
  22265079.6724  117004136.31447     -2789.6374         47.9004
  20873770.8444  109692341.13548       426.5664         51.4004
  23860087.234   125385716.816 7      3703.703          44.900
  20479145.1724  107618743.78648     -1072.1454         51.3004
  25432198.016   133647040.200 6     -3309.945          40.000
  21807780.2424  114600844.47648      2583.1484         49.8004
  24874569.8054  130716765.42446      -451.5434         39.0004
  23608961.0474  124065896.62947      3156.2344         43.6004
 11 10 21 21  3 28.0000000  0 11G13G32G17G20G04G07G23G31G10G30G02
  20125662.9384  105761008.12148       704.0164         49.3004
  24925707.4384  130985650.45346     -2999.5984         41.7004
  24708982.516   129846589.464 7     -3172.590          42.500
  22265610.4064  117006926.14947     -2789.9374         47.6004
  20873689.8204  109691914.94048       425.9064         50.9004
  23859382.766   125382013.283 7      3703.488          45.300
  20479349.0554  107619816.21348     -1072.5744         51.6004
  25432828.211   133650350.253 6     -3309.984          40.300
  21807288.7424  114598261.54348      2582.8484         50.0004
  24874656.2194  130717217.46646      -452.2814         39.0004
  23608360.0634  124062740.53847      3156.0824         43.5004
 11 10 21 21  3 29.0000000  0 11G13G32G17G20G04G07G23G31G10G30G02
  20125528.9924  105760304.50548       703.5354         49.1004
  24926278.1254  130988650.19446     -2999.5434         41.8004
  24709586.227   129849762.196 7     -3172.625          42.500
  22266141.2894  117009716.23647     -2790.0664         47.8004
  20873608.7194  109691489.40048       425.4614         50.9004
  23858678.063   125378309.867 7      3703.582          45.500
  20479553.4454  107620889.07448     -1072.8404         51.4004
  25433458.586   133653660.566 6     -3310.191          40.400
  21806797.5394  114595678.87548      2582.7854         50.3004
  24874742.8594  130717670.20346      -452.9414         39.2004
  23607759.8754  124059584.75747      3155.8324         43.7004
 11 10 21 21  3 30.0000000  0 11G13G32G17G20G04G07G23G31G10G30G02
  20125395.2734  105759601.32148       703.0004         48.8004
  24926848.7114  130991649.92847     -2999.7114         42.5004
  24710190.438   129852934.871 6     -3172.570          41.600
  22266672.6484  117012506.48848     -2790.2344         48.0004
  20873528.1334  109691064.42648       424.7934         51.0004
  23857973.109   125374606.471 7      3703.531          44.500
  20479757.6414  107621962.29148     -1073.2814         50.9004
  25434088.258   133656971.055 6     -3310.402          40.900
  21806305.9454  114593096.38148      2582.5204         50.3004
  24874829.2034  130718123.45246      -453.3914         39.0004
  23607160.0164  124056429.19147      3155.6334         43.9004
 11 10 21 21  3 31.0000000  0 11G13G32G17G20G04G07G23G31G10G30G02
  20125261.5554  105758898.83148       702.2274         48.6004
  24927419.5004  130994649.88347     -3000.1174         42.3004
  24710793.914   129856107.786 6     -3172.984          41.600
  22267203.4774  117015297.17248     -2790.7734         48.0004
  20873447.1724  109690640.28848       423.7544         51.0004
  23857268.703   125370903.372 7      3703.121          44.800
  20479962.0864  107623036.12048     -1074.0824         51.1004
  25434718.266   133660281.849 6     -3310.992          39.900
  21805814.6564  114590514.31948      2581.8674         50.2004
  24874915.7584  130718577.52846      -454.4454         38.6004
  23606559.4144  124053274.12747      3154.8134         43.8004
 11 10 21 21  3 32.0000000  0 11G13G32G17G20G04G07G23G31G10G30G02
  20125128.1334  105758196.76648       701.8014         48.2004
  24927991.1884  130997649.75047     -2999.8244         42.6004
  24711397.734   129859280.618 7     -3172.668          42.200
  22267734.4454  117018087.96547     -2790.8984         47.8004
  20873366.7584  109690216.66448       423.3444         50.9004
  23856563.758   125367200.288 7      3703.066          44.900
  20480166.3524  107624110.24748     -1074.2704         51.4004
  25435348.148   133663592.824 6     -3311.094          40.200
  21805323.3524  114587932.40048      2581.8284         49.7004
  24875001.6254  130719032.13446      -454.9884         38.3004
  23605958.9774  124050119.19947      3154.7734         43.7004
 11 10 21 21  3 33.0000000  0 11G13G32G17G20G04G07G23G31G10G30G02
  20124994.3054  105757495.21348       701.2464         48.6004
  24928561.4774  131000649.71347     -3000.1644         42.8004
  24712001.734   129862453.521 6     -3173.012          41.600
  22268265.6024  117020879.00648     -2791.2814         48.1004
  20873286.0554  109689793.70148       422.5044         50.8004
  23855859.641   125363497.298 7      3702.762          45.400
  20480371.0704  107625184.82648     -1074.9104         51.2004
  25435977.539   133666903.970 6     -3311.422          39.700
  21804831.7584  114585350.74448      2581.3364         49.6004
  24875088.2034  130719487.36246      -455.6994         38.8004
  23605358.1954  124046964.58347      3154.3874         43.4004
 11 10 21 21  3 34.0000000  0 11G13G32G17G20G04G07G23G31G10G30G02
  20124861.1174  105756794.33148       700.2894         48.9004
  24929132.3524  131003649.82047     -3000.5204         42.7004
  24712605.242   129865626.603 6     -3173.484          41.300
  22268796.6564  117023670.43648     -2791.9144         48.0004
  20873205.5634  109689371.46148       421.5704         50.5004
  23855155.094   125359794.555 7      3702.363          45.400
  20480575.6724  107626259.95148     -1075.6334         51.2004
  25436608.141   133670215.462 6     -3311.863          39.800
  21804340.8984  114582769.44248      2580.8984         49.6004
  24875175.2034  130719943.37646      -456.8284         39.0004
  23604758.1804  124043810.39647      3153.6684         43.8004
 11 10 21 21  3 35.0000000  0 11G13G32G17G20G04G07G23G31G10G30G02
  20124727.7424  105756093.88448       699.8674         49.3004
  24929703.5944  131006649.92146     -3000.4694         41.8004
  24713209.352   129868799.650 6     -3173.430          40.800
  22269327.7734  117026462.02948     -2792.0784         48.2004
  20873125.6334  109688949.81248       421.0004         50.6004
  23854450.672   125356091.841 7      3702.348          45.700
  20480780.0554  107627335.44248     -1076.0554         51.0004
  25437237.820   133673527.101 6     -3312.125          39.900
  21803849.5864  114580188.32748      2580.6844         49.4004
  24875261.6484  130720399.93046      -457.1844         39.0004
  23604158.1334  124040656.41947      3153.5554         44.0004
 11 10 21 21  3 36.0000000  0 11G13G32G17G20G04G07G23G31G10G30G02
  20124594.5944  105755394.07248       699.7304         49.3004
  24930273.6484  131009650.15447     -3000.1094         42.1004
  24713812.539   129871972.826 6     -3172.961          40.800
  22269858.9384  117029253.96748     -2791.8404         48.5004
  20873045.8204  109688528.88948       420.8054         50.3004
  23853745.391   125352389.352 7      3702.605          45.900
  20480984.7584  107628411.43548     -1076.0514         50.9004
  25437867.906   133676839.092 6     -3311.832          39.700
  21803358.4614  114577607.56648      2580.8054         49.2004
  24875348.7584  130720857.22346      -457.2664         39.4004
  23603557.7584  124037502.82847      3153.6954         44.2004
 11 10 21 21  3 37.0000000  0 11G13G32G17G20G04G07G23G31G10G30G02
  20124461.3444  105754694.79048       698.8284         49.6004
  24930844.8674  131012650.50146     -3000.6094         41.6004
  24714416.484   129875146.083 6     -3173.457          40.900
  22270390.8364  117032046.16048     -2792.5234         48.3004
  20872965.7974  109688108.62148       419.7344         50.7004
  23853040.859   125348686.979 7      3702.176          45.400
  20481189.3834  107629487.89148     -1076.9374         50.8004
  25438498.438   133680151.300 6     -3312.523          39.500
  21802867.3524  114575027.07948      2580.1954         49.3004
  24875436.4454  130721315.16646      -458.3634         39.4004
  23602958.1954  124034349.56647      3152.9104         44.2004
 11 10 21 21  3 38.0000000  0 11G13G32G17G20G04G07G23G31G10G30G02
  20124328.2194  105753995.96348       698.6174         49.2004
  24931415.6024  131015650.78947     -3000.3244         42.0004
  24715020.711   129878319.332 6     -3173.270          41.100
  22270921.4384  117034838.49948     -2792.3554         48.0004
  20872885.8364  109687688.92448       419.4734         50.7004
  23852336.531   125344984.651 7      3702.395          45.300
  20481394.6804  107630564.67648     -1076.8674         51.0004
  25439129.281   133683463.632 6     -3312.418          40.000
  21802376.4304  114572446.75548      2580.2814         49.5004
  24875523.4454  130721773.69246      -458.6994         39.2004
  23602358.4384  124031196.52447      3152.9574         44.8004
 11 10 21 21  3 39.0000000  0 11G13G32G17G20G04G07G23G31G10G30G02
  20124195.5474  105753297.67148       697.7814         49.2004
  24931987.4384  131018651.12047     -3000.6414         42.3004
  24715624.375   129881492.629 6     -3173.602          41.300
  22271453.2344  117037631.12248     -2793.0394         48.0004
  20872806.1094  109687269.91448       418.4024         50.7004
  23851632.281   125341282.436 7      3701.902          45.000
  20481599.8594  107631641.92848     -1077.7584         51.0004
  25439759.148   133686776.201 6     -3312.992          39.700
  21801885.7734  114569866.69848      2579.6644         49.3004
  24875610.4614  130722232.87846      -459.8524         39.2004
  23601757.8364  124028043.77447      3152.2704         45.0004
 11 10 21 21  3 40.0000000  0 11G13G32G17G20G04G07G23G31G10G30G02
  20124062.7734  105752599.94948       697.3794         49.1004
  24932558.4064  131021651.55947     -3000.5164         42.1004
  24716228.211   129884666.007 6     -3173.562          41.200
  22271984.6174  117040424.03548     -2793.2344         48.2004
  20872726.3524  109686851.56448       417.8834         50.3004
  23850927.805   125337580.395 7      3701.855          45.300
  20481804.5704  107632719.63148     -1078.0554         50.7004
  25440389.531   133690089.014 6     -3312.953          39.800
  21801394.4924  114567286.95248      2579.5004         49.0004
  24875697.6254  130722692.69446      -460.2384         38.7004
  23601158.3984  124024891.36947      3152.1054         45.1004
 11 10 21 21  3 41.0000000  0 11G13G32G17G20G04G07G23G31G10G30G02
  20123930.1954  105751902.90948       696.6994         49.1004
  24933129.3984  131024652.19647     -3000.7424         42.2004
  24716832.281   129887839.587 6     -3173.695          41.000
  22272516.5784  117043217.31948     -2793.5354         48.3004
  20872647.0634  109686434.00748       417.1454         50.8004
  23850223.156   125333878.564 7      3701.691          45.100
  20482009.7344  107633797.91148     -1078.6254         50.8004
  25441019.742   133693402.193 6     -3313.352          39.500
  21800903.6884  114564707.59048      2579.1914         49.3004
  24875785.3364  130723153.29846      -461.1524         38.9004
  23600558.2584  124021739.40647      3151.7274         44.3004
 11 10 21 21  3 42.0000000  0 11G13G32G17G20G04G07G23G31G10G30G02
  20123797.7344  105751206.30748       696.5984         49.2004
  24933699.8914  131027652.82047     -3000.4344         42.8004
  24717435.898   129891013.147 6     -3173.289          40.500
  22273047.7424  117046010.76148     -2793.3014         48.2004
  20872567.7584  109686017.03148       416.9964         50.7004
  23849518.781   125330176.815 7      3701.918          45.200
  20482215.4384  107634876.54748     -1078.5624         50.9004
  25441650.227   133696715.536 6     -3313.207          39.300
  21800413.2734  114562128.41348      2579.3794         49.4004
  24875873.4304  130723614.49846      -461.1564         38.5004
  23599958.6024  124018587.66147      3151.8754         44.1004
 11 10 21 21  3 43.0000000  0 11G13G32G17G20G04G07G23G31G10G30G02
  20123665.4924  105750510.23548       695.6954         49.0004
  24934270.9224  131030653.50947     -3000.7384         42.8004
  24718040.047   129894186.788 6     -3173.797          40.800
  22273579.7344  117048804.46347     -2793.8404         47.9004
  20872488.6414  109685600.69748       415.8914         50.7004
  23848814.438   125326475.146 7      3701.586          44.900
  20482420.3594  107635955.61848     -1079.3914         51.1004
  25442280.867   133700029.128 6     -3313.820          39.200
  21799922.2584  114559549.50048      2578.6844         49.0004
  24875961.5004  130724076.39246      -462.2624         38.5004
  23599359.3134  124015436.20647      3151.1764         43.6004
 11 10 21 21  3 44.0000000  0 11G13G32G17G20G04G07G23G31G10G30G02
  20123532.6564  105749814.79648       695.0784         49.0004
  24934841.8914  131033654.35247     -3000.9774         42.2004
  24718643.836   129897360.525 6     -3173.934          40.900
  22274111.2584  117051598.52247     -2794.2854         47.7004
  20872409.2974  109685185.09248       415.2074         50.8004
  23848109.789   125322773.697 7      3701.324          45.400
  20482625.8134  107637035.22448     -1079.9344         51.2004
  25442911.539   133703342.943 6     -3314.055          38.700
  21799431.2504  114556970.93548      2578.3554         49.2004
  24876049.6884  130724538.93046      -463.0514         38.4004
  23598758.4534  124012285.13747      3150.8014         43.2004
 11 10 21 21  3 45.0000000  0 11G13G32G17G20G04G07G23G31G10G30G02
  20123400.7034  105749119.88648       694.6724         48.9004
  24935413.1804  131036655.25547     -3000.9374         42.3004
  24719247.727   129900534.345 6     -3173.855          40.600
  22274643.1414  117054392.84347     -2794.4694         47.8004
  20872330.2734  109684770.17248       414.6294         51.3004
  23847405.578   125319072.383 7      3701.270          45.700
  20482831.4774  107638115.26148     -1080.2034         50.8004
  25443542.039   133706657.036 6     -3314.246          39.000
  21798940.8054  114554392.62948      2578.2274         49.5004
  24876137.9064  130725002.13146      -463.5704         38.7004
  23598159.5164  124009134.40247      3150.5944         43.0004
 11 10 21 21  3 46.0000000  0 11G13G32G17G20G04G07G23G31G10G30G02
  20123268.4144  105748425.45048       694.1804         49.4004
  24935984.0314  131039656.13046     -3000.9024         41.6004
  24719851.789   129903708.151 6     -3173.914          40.600
  22275175.0704  117057187.34148     -2794.6764         48.5004
  20872251.6564  109684355.83848       414.0044         50.9004
  23846701.234   125315371.123 7      3701.266          45.300
  20483037.1334  107639195.66848     -1080.5864         50.9004
  25444173.031   133709971.338 6     -3314.547          39.100
  21798450.3984  114551814.52548      2577.9344         49.7004
  24876225.6174  130725465.96646      -464.2194         39.0004
  23597560.0784  124005983.90047      3150.3984         43.0004
 11 10 21 21  3 47.0000000  0 11G13G32G17G20G04G07G23G31G10G30G02
  20123136.3444  105747731.46748       693.8094         49.3004
  24936554.8284  131042657.02846     -3000.7424         40.7004
  24720456.039   129906881.945 6     -3173.664          40.800
  22275706.6564  117059982.01948     -2794.7734         48.4004
  20872172.9534  109683942.03448       413.6134         51.0004
  23845996.688   125311669.902 7      3701.309          45.100
  20483242.8284  107640276.44148     -1080.8594         50.7004
  25444803.609   133713285.712 6     -3314.234          39.200
  21797960.1564  114549236.60548      2577.8364         49.5004
  24876312.8134  130725930.27146      -464.4534         38.4004
  23596960.3444  124002833.61447      3150.2154         42.6004
 11 10 21 21  3 48.0000000  0 11G13G32G17G20G04G07G23G31G10G30G02
  20123004.3524  105747038.12348       693.0164         49.6004
  24937126.3914  131045658.09046     -3001.1874         41.4004
  24721059.203   129910055.903 6     -3174.039          40.800
  22276238.0084  117062777.04548     -2795.2774         48.3004
  20872094.1254  109683529.00948       412.6454         51.1004
  23845292.484   125307968.923 7      3700.844          45.100
  20483448.5004  107641357.76948     -1081.6454         51.1004
  25445435.047   133716600.480 6     -3314.941          38.700
  21797469.3524  114546659.05548      2577.3284         49.8004
  24876401.4774  130726395.41446      -465.6174         38.3004
  23596361.2194  123999683.75047      3149.6884         42.9004
 11 10 21 21  3 49.0000000  0 11G13G32G17G20G04G07G23G31G10G30G02
  20122872.7894  105746345.33548       692.5704         49.9004
  24937697.3054  131048659.21747     -3001.1994         42.4004
  24721663.438   129913229.949 6     -3174.133          41.200
  22276770.2424  117065572.34747     -2795.5474         47.9004
  20872015.4924  109683116.65148       412.0394         51.1004
  23844588.938   125304268.086 7      3700.813          45.100
  20483654.6804  107642439.53548     -1081.9414         51.1004
  25446065.297   133719915.437 6     -3315.004          38.700
  21796978.7734  114544081.78548      2577.1254         49.8004
  24876490.9614  130726861.19546      -466.0044         38.1004
  23595762.0864  123996534.19247      3149.3914         42.8004
 11 10 21 21  3 50.0000000  0 11G13G32G17G20G04G07G23G31G10G30G02
  20122740.9384  105745653.08148       691.7384         49.9004
  24938268.3364  131051660.38047     -3001.4654         42.6004
  24722267.750   129916404.041 6     -3174.309          41.000
  22277302.2734  117068367.90447     -2795.9494         47.6004
  20871937.2974  109682704.96948       411.1254         51.2004
  23843883.992   125300567.350 7      3700.426          44.600
  20483860.3444  107643521.73648     -1082.6804         51.2004
  25446696.141   133723230.667 6     -3315.590          39.000
  21796488.2664  114541504.77248      2576.6724         49.9004
  24876579.8594  130727327.64346      -467.0944         37.9004
  23595162.5474  123993384.96647      3148.7894         42.8004
 11 10 21 21  3 51.0000000  0 11G13G32G17G20G04G07G23G31G10G30G02
  20122609.1414  105744961.38148       691.5784         49.6004
  24938840.0944  131054661.64947     -3001.1294         43.2004
  24722871.922   129919578.233 6     -3174.129          41.200
  22277834.2194  117071163.73147     -2795.8484         47.6004
  20871859.2504  109682293.95448       410.7544         51.2004
  23843180.297   125296866.779 7      3700.660          45.100
  20484066.3984  107644604.41148     -1082.7504         51.7004
  25447327.500   133726546.121 6     -3315.410          38.500
  21795997.9694  114538928.04248      2576.7704         49.9004
  24876668.3754  130727794.75246      -467.3204         37.2004
  23594563.6884  123990236.05447      3148.8634         42.6004
 11 10 21 21  3 52.0000000  0 11G13G32G17G20G04G07G23G31G10G30G02
  20122477.9694  105744270.17348       691.0394         49.2004
  24939410.7344  131057662.93247     -3001.1954         43.2004
  24723475.609   129922752.419 6     -3174.184          41.400
  22278366.5704  117073959.77647     -2796.1294         47.2004
  20871780.7424  109681883.52048       410.2034         51.2004
  23842475.773   125293166.276 7      3700.508          45.200
  20484272.5554  107645687.45948     -1083.1644         52.1004
  25447957.781   133729861.767 6     -3315.719          38.800
  21795507.7814  114536351.54948      2576.4494         49.6004
  24876756.8674  130728262.44846      -467.8444         37.0004
  23593964.4694  123987087.39247      3148.5514         42.4004
 11 10 21 21  3 53.0000000  0 11G13G32G17G20G04G07G23G31G10G30G02
  20122346.5394  105743579.66648       690.3524         48.8004
  24939981.7974  131060664.43447     -3001.4414         43.4004
  24724080.023   129925926.818 6     -3174.258          41.400
  22278898.6884  117076756.23747     -2796.4844         47.3004
  20871702.9614  109681473.92748       409.3794         51.4004
  23841771.805   125289466.069 7      3700.246          45.600
  20484478.5864  107646771.11748     -1083.7114         51.9004
  25448589.078   133733177.805 6     -3316.094          39.000
  21795017.4694  114533775.46448      2576.0594         49.5004
  24876846.6564  130728730.97646      -468.6604         37.7004
  23593365.9924  123983939.20947      3148.2034         42.5004
 11 10 21 21  3 54.0000000  0 11G13G32G17G20G04G07G23G31G10G30G02
  20122215.2344  105742889.71948       689.4344         48.8004
  24940553.3754  131063666.05147     -3001.8954         42.7004
  24724684.531   129929101.324 6     -3174.820          41.400
  22279430.6174  117079552.97747     -2797.1294         47.2004
  20871624.8914  109681065.00448       408.3444         51.7004
  23841067.914   125285765.997 7      3699.801          45.100
  20484684.8674  107647855.23848     -1084.4924         51.9004
  25449219.625   133736494.084 6     -3316.598          38.100
  21794527.2814  114531199.68348      2575.4694         49.9004
  24876935.5314  130729200.19046      -469.8094         38.1004
  23592766.5864  123980791.37347      3147.5394         42.2004
 11 10 21 21  3 55.0000000  0 11G13G32G17G20G04G07G23G31G10G30G02
  20122083.7974  105742200.20248       689.3134         49.0004
  24941124.4694  131066667.60647     -3001.5554         42.5004
  24725288.914   129932275.763 6     -3174.477          41.700
  22279963.2734  117082349.87247     -2797.0044         47.5004
  20871547.0784  109680656.64948       408.0354         51.1004
  23840363.461   125282065.943 7      3700.055          45.000
  20484891.4224  107648939.70148     -1084.6724         51.5004
  25449850.734   133739810.478 6     -3316.391          37.900
  21794037.2664  114528624.04948      2575.5744         49.9004
  24877025.7344  130729669.92246      -470.0004         38.6004
  23592167.3834  123977643.73847      3147.4024         42.8004
 11 10 21 21  3 56.0000000  0 11G13G32G17G20G04G07G23G31G10G30G02
  20121952.7974  105741511.23848       688.9774         48.4004
  24941695.5084  131069669.27047     -3001.3914         42.4004
  24725891.984   129935450.303 6     -3174.320          41.500
  22280495.5784  117085147.03447     -2797.0704         47.2004
  20871469.7974  109680248.95848       407.7424         51.2004
  23839659.258   125278366.043 7      3700.125          45.200
  20485097.8524  107650024.61348     -1084.8444         51.3004
  25450481.680   133743127.155 6     -3316.367          37.800
  21793547.2664  114526048.70348      2575.5554         49.1004
  24877115.6804  130730140.29946      -470.1564         38.1004
  23591567.8754  123974496.41847      3147.5004         42.4004
 11 10 21 21  3 57.0000000  0 11G13G32G17G20G04G07G23G31G10G30G02
  20121821.6334  105740822.76048       688.0864         48.6004
  24942266.5234  131072670.89547     -3001.7034         42.7004
  24726496.594   129938624.800 6     -3174.621          41.700
  22281027.3834  117087944.38147     -2797.5314         47.7004
  20871392.0554  109679841.86548       406.6024         51.4004
  23838955.688   125274666.183 7      3699.707          45.300
  20485304.2814  107651109.89948     -1085.6334         51.0004
  25451112.602   133746443.982 6     -3316.965          38.000
  21793056.9384  114523473.55948      2574.8984         49.1004
  24877205.4384  130730611.33546      -471.4374         38.8004
  23590969.7344  123971349.32647      3146.8324         42.6004
 11 10 21 21  3 58.0000000  0 11G13G32G17G20G04G07G23G31G10G30G02
  20121691.1174  105740134.95048       687.4844         49.3004
  24942837.6094  131075672.72647     -3001.9694         43.0004
  24727101.289   129941799.522 6     -3174.770          41.700
  22281560.0554  117090742.13947     -2797.9184         47.5004
  20871315.0944  109679435.54248       406.0204         51.3004
  23838251.109   125270966.591 7      3699.555          45.600
  20485510.7584  107652195.77048     -1086.1334         51.1004
  25451744.469   133749761.139 6     -3317.324          37.700
  21792567.1644  114520898.80148      2574.6254         49.6004
  24877294.7424  130731083.08546      -472.2584         38.0004
  23590370.9454  123968202.67447      3146.5514         42.9004
 11 10 21 21  3 59.0000000  0 11G13G32G17G20G04G07G23G31G10G30G02
  20121560.2344  105739447.59948       687.2154         49.3004
  24943409.1724  131078674.55847     -3001.6564         43.1004
  24727704.953   129944974.219 7     -3174.551          42.100
  22282092.2274  117093540.06747     -2797.8794         47.9004
  20871238.1644  109679029.85148       405.4614         51.1004
  23837547.297   125267267.056 7      3699.633          45.800
  20485717.7504  107653282.00348     -1086.3404         51.2004
  25452375.500   133753078.488 6     -3317.391          37.200
  21792077.2734  114518324.27248      2574.5594         50.0004
  24877383.9454  130731555.48146      -472.5664         37.9004
  23589772.2664  123965056.29747      3146.3094         42.8004
 11 10 21 21  4  0.0000000  0 11G13G32G17G20G04G07G23G31G10G30G02
  20121429.3204  105738760.76748       686.6884         49.6004
  24943979.9144  131081676.42347     -3001.7974         42.6004
  24728308.445   129948148.972 6     -3174.699          41.800
  22282624.8674  117096338.22948     -2798.1294         48.1004
  20871160.8834  109678624.73248       404.9224         51.3004
  23836843.375   125263567.583 7      3699.590          45.400
  20485924.5634  107654368.63848     -1086.6874         50.8004
  25453006.477   133756396.015 6     -3317.492          37.000
  21791587.4844  114515749.93548      2574.4144         50.3004
  24877473.2974  130732028.42046      -473.0514         37.0004
  23589173.0004  123961910.17347      3146.1134         42.6004
 11 10 21 21  4  1.0000000  0 11G13G32G17G20G04G07G23G31G10G30G02
  20121298.8524  105738074.49248       686.0784         50.0004
  24944552.0234  131084678.39947     -3001.9844         42.6004
  24728912.867   129951323.796 6     -3174.754          41.400
  22283157.2814  117099136.69247     -2798.5314         47.9004
  20871083.8054  109678220.31848       404.1294         51.4004
  23836139.594   125259868.324 7      3699.223          45.400
  20486131.2194  107655455.75348     -1087.2544         51.0004
  25453637.992   133759713.832 6     -3317.980          36.500
  21791097.4454  114513175.94548      2573.9104         50.6004
  24877563.7584  130732502.08046      -473.9734         37.0004
  23588574.3594  123958764.39847      3145.6374         43.0004
 11 10 21 21  4  2.0000000  0 11G13G32G17G20G04G07G23G31G10G30G02
  20121168.3594  105737388.74148       685.4844         49.4004
  24945122.8364  131087680.37747     -3002.0664         42.7004
  24729516.352   129954498.645 6     -3174.996          41.600
  22283689.9224  117101935.35148     -2798.7934         48.1004
  20871007.2114  109677816.50348       403.4454         51.5004
  23835435.797   125256169.129 7      3699.000          45.100
  20486338.1644  107656543.26848     -1087.8094         51.1004
  25454269.781   133763031.783 6     -3317.965          36.600
  21790607.7344  114510602.14348      2573.6414         50.5004
  24877655.0704  130732976.34546      -474.6374         38.0004
  23587976.1024  123955618.90447      3145.2234         43.5004
 11 10 21 21  4  3.0000000  0 11G13G32G17G20G04G07G23G31G10G30G02
  20121037.9534  105736703.70948       684.8444         48.8004
  24945694.3594  131090682.61547     -3002.1684         43.5004
  24730121.625   129957673.756 6     -3175.098          41.600
  22284222.4614  117104734.47948     -2799.1484         48.0004
  20870930.6644  109677413.54048       402.7114         51.4004
  23834732.156   125252470.240 7      3698.945          45.200
  20486545.3754  107657631.40948     -1088.2464         51.6004
  25454901.555   133766350.190 6     -3318.527          37.000
  21790118.1094  114508028.82248      2573.2974         50.0004
  24877745.3754  130733451.45346      -475.4184         38.3004
  23587377.4694  123952473.91347      3144.8754         43.6004
 11 10 21 21  4  4.0000000  0 11G13G32G17G20G04G07G23G31G10G30G02
  20120907.6954  105736019.02648       684.3014         49.1004
  24946265.3834  131093684.73747     -3002.2584         43.5004
  24730725.141   129960848.736 7     -3175.094          42.000
  22284755.2424  117107533.66547     -2799.3714         47.8004
  20870854.1024  109677011.06048       402.0984         51.5004
  23834027.945   125248771.306 7      3698.781          45.400
  20486752.2424  107658719.80448     -1088.6604         51.5004
  25455532.836   133769668.643 6     -3318.613          37.600
  21789628.3984  114505455.55948      2573.0784         49.6004
  24877836.6414  130733927.02846      -475.7814         38.8004
  23586779.1884  123949329.03647      3144.6374         43.7004
 11 10 21 21  4  5.0000000  0 11G13G32G17G20G04G07G23G31G10G30G02
  20120777.4694  105735334.86848       683.4574         48.8004
  24946836.8524  131096686.93747     -3002.6254         42.1004
  24731329.648   129964023.775 6     -3175.453          41.600
  22285287.8594  117110333.11647     -2799.9494         47.6004
  20870777.4304  109676609.21748       401.1954         51.4004
  23833323.680   125245072.494 7      3698.422          45.900
  20486959.3444  107659808.65748     -1089.4534         50.9004
  25456165.133   133772987.315 6     -3319.160          37.800
  21789138.6094  114502882.59048      2572.5124         49.4004
  24877926.9224  130734403.28546      -476.9304         38.3004
  23586180.5784  123946184.49447      3144.0274         43.9004
 11 10 21 21  4  6.0000000  0 11G13G32G17G20G04G07G23G31G10G30G02
  20120647.5944  105734651.41048       683.0744         48.5004
  24947407.8364  131099689.33247     -3002.5434         42.9004
  24731934.164   129967199.012 6     -3175.312          41.800
  22285820.9924  117113132.96547     -2800.1374         47.9004
  20870700.8204  109676208.19448       400.5824         51.3004
  23832620.477   125241373.968 7      3698.262          45.800
  20487167.0394  107660898.09848     -1089.7894         50.7004
  25456796.188   133776306.362 6     -3319.379          38.300
  21788649.1094  114500310.03748      2572.2624         49.5004
  24878016.9614  130734880.29646      -477.4024         38.8004
  23585582.6024  123943040.38847      3143.8244         43.7004
 11 10 21 21  4  7.0000000  0 11G13G32G17G20G04G07G23G31G10G30G02
  20120517.6254  105733968.32148       682.8594         48.5004
  24947980.0004  131102691.62747     -3002.3754         43.4004
  24732537.797   129970374.146 6     -3175.117          41.400
  22286353.5234  117115932.89848     -2800.0274         48.2004
  20870624.8204  109675807.67548       400.1564         51.4004
  23831916.188   125237675.411 7      3698.594          45.900
  20487374.4224  107661987.80548     -1089.9224         51.0004
  25457428.539   133779625.470 6     -3319.184          38.400
  21788159.6724  114497737.58348      2572.2974         49.5004
  24878108.4144  130735357.84246      -477.8794         38.5004
  23584983.7034  123939896.42147      3143.8594         43.4004
 11 10 21 21  4  8.0000000  0 11G13G32G17G20G04G07G23G31G10G30G02
  20120387.6094  105733285.83348       682.2934         48.2004
  24948550.5474  131105694.07347     -3002.5124         43.2004
  24733141.914   129973549.425 6     -3175.250          40.200
  22286886.3834  117118733.16448     -2800.3444         48.6004
  20870548.6484  109675407.89648       399.4774         51.0004
  23831212.859   125233977.031 7      3698.301          46.100
  20487581.9304  107663078.02948     -1090.4614         51.3004
  25458060.352   133782944.898 6     -3319.469          38.700
  21787670.4774  114495165.46148      2572.0394         49.5004
  24878197.7424  130735836.03246      -478.4494         38.1004
  23584385.9224  123936752.84947      3143.5634         43.2004
 11 10 21 21  4  9.0000000  0 11G13G32G17G20G04G07G23G31G10G30G02
  20120257.7504  105732603.94948       681.5274         48.4004
  24949122.1564  131108696.61447     -3002.5864         43.6004
  24733746.430   129976724.835 6     -3175.586          40.400
  22287419.4844  117121533.72548     -2800.7664         48.0004
  20870472.4534  109675008.78948       398.6644         50.8004
  23830508.656   125230278.832 7      3698.066          45.900
  20487789.1484  107664168.72348     -1091.0554         51.5004
  25458692.508   133786264.584 6     -3319.859          39.200
  21787180.5864  114492593.65548      2571.6414         49.3004
  24878289.4144  130736314.99746      -479.3984         37.7004
  23583787.8914  123933609.66047      3142.9694         43.6004
 11 10 21 21  4 10.0000000  0 11G13G32G17G20G04G07G23G31G10G30G02
  20120128.0234  105731922.50548       681.2114         48.2004
  24949693.6724  131111699.12547     -3002.3404         43.2004
  24734350.547   129979900.149 6     -3175.254          40.300
  22287952.3984  117124334.45448     -2800.7504         48.3004
  20870396.9844  109674610.29548       398.2734         50.8004
  23829805.086   125226580.665 7      3698.230          45.700
  20487996.9534  107665259.79248     -1091.1914         51.4004
  25459324.469   133789584.411 6     -3319.859          39.500
  21786691.8524  114490022.03148      2571.5514         49.4004
  24878380.9454  130736794.47346      -479.6874         38.1004
  23583189.7664  123930466.66547      3142.9414         44.3004
 11 10 21 21  4 11.0000000  0 11G13G32G17G20G04G07G23G31G10G30G02
  20119998.6414  105731241.72548       680.5274         48.0004
  24950264.6564  131114701.83747     -3002.6954         43.1004
  24734955.031   129983075.663 6     -3175.492          40.700
  22288485.4614  117127135.58048     -2801.2194         48.4004
  20870321.1254  109674212.53148       397.4414         51.0004
  23829101.266   125222882.760 7      3697.859          46.100
  20488204.7274  107666351.41248     -1091.7664         51.6004
  25459956.063   133792904.607 6     -3320.340          40.400
  21786202.2664  114487450.79648      2571.1094         49.2004
  24878473.0944  130737274.74646      -480.7034         38.1004
  23582591.6724  123927324.09447      3142.4614         43.9004
 11 10 21 21  4 12.0000000  0 11G13G32G17G20G04G07G23G31G10G30G02
  20119869.0864  105730561.43148       679.8834         48.5004
  24950836.4774  131117704.56047     -3002.9064         43.0004
  24735560.203   129986251.228 6     -3175.730          41.300
  22289018.7344  117129936.88648     -2801.5824         48.4004
  20870246.0634  109673815.39548       396.7154         51.1004
  23828397.453   125219184.938 7      3697.617          45.700
  20488412.2734  107667443.42248     -1092.3874         51.5004
  25460587.359   133796224.947 6     -3320.727          40.000
  21785712.9774  114484879.77648      2570.7274         49.3004
  24878564.1724  130737755.62246      -481.5434         37.8004
  23581993.5864  123924181.78847      3142.0704         43.9004
 11 10 21 21  4 13.0000000  0 11G13G32G17G20G04G07G23G31G10G30G02
  20119739.3674  105729881.55748       679.5864         48.8004
  24951407.8284  131120707.24347     -3002.8204         42.8004
  24736163.539   129989426.710 6     -3175.535          40.900
  22289551.3674  117132738.36448     -2801.6294         48.2004
  20870170.3204  109673418.79148       396.2344         51.1004
  23827693.859   125215487.110 7      3697.750          45.200
  20488620.5314  107668535.78448     -1092.6254         51.8004
  25461219.609   133799545.417 6     -3320.473          40.000
  21785223.7344  114482308.92648      2570.7544         49.3004
  24878655.1414  130738237.02746      -481.7274         37.4004
  23581396.0784  123921039.69247      3141.9614         44.5004
 11 10 21 21  4 14.0000000  0 11G13G32G17G20G04G07G23G31G10G30G02
  20119610.5634  105729202.34148       679.0864         48.9004
  24951979.9694  131123710.10746     -3002.8444         41.3004
  24736768.336   129992602.341 6     -3175.605          40.700
  22290084.3134  117135540.22048     -2801.9494         48.3004
  20870095.1954  109673022.97748       395.5664         51.1004
  23826990.094   125211789.540 7      3697.684          44.900
  20488828.2114  107669628.69248     -1093.1454         51.3004
  25461851.320   133802866.234 6     -3320.914          40.300
  21784734.6724  114479738.45348      2570.3984         49.1004
  24878747.2734  130738719.23046      -482.6644         36.9004
  23580798.0784  123917898.04247      3141.5084         44.4004
 11 10 21 21  4 15.0000000  0 11G13G32G17G20G04G07G23G31G10G30G02
  20119481.3914  105728523.80848       678.2504         49.1004
  24952550.6884  131126713.14546     -3003.1254         40.9004
  24737372.195   129995778.182 6     -3175.906          40.600
  22290617.9924  117138342.44948     -2802.3834         48.4004
  20870020.0084  109672627.94448       394.6994         51.2004
  23826286.438   125208092.225 7      3697.211          45.200
  20489036.2584  107670722.14948     -1093.6914         50.7004
  25462483.352   133806187.411 6     -3321.207          39.700
  21784245.6804  114477168.39848      2569.9264         49.0004
  24878839.5084  130739202.12546      -483.2934         37.4004
  23580199.9224  123914756.77547      3141.0824         44.5004
 11 10 21 21  4 16.0000000  0 11G13G32G17G20G04G07G23G31G10G30G02
  20119352.4844  105727845.79048       677.7194         49.1004
  24953122.2034  131129716.26046     -3003.1914         41.5004
  24737977.227   129998954.068 6     -3175.930          40.900
  22291151.1174  117141144.93047     -2802.6844         47.9004
  20869944.6024  109672233.53748       394.0744         51.3004
  23825582.859   125204395.013 7      3697.145          45.300
  20489244.5084  107671816.06148     -1094.1484         50.9004
  25463115.438   133809508.813 6     -3321.430          39.600
  21783756.7194  114474598.56748      2569.6844         49.2004
  24878932.2584  130739685.74146      -483.8594         38.1004
  23579602.4144  123911615.84047      3140.7704         44.5004
 11 10 21 21  4 17.0000000  0 11G13G32G17G20G04G07G23G31G10G30G02
  20119223.5864  105727168.26748       677.2464         49.2004
  24953693.7814  131132719.40846     -3003.2734         41.9004
  24738581.398   130002129.978 6     -3176.090          40.600
  22291684.3834  117143947.61547     -2802.8094         47.8004
  20869869.8674  109671839.77548       393.3914         51.1004
  23824879.617   125200697.904 7      3697.055          43.900
  20489452.8134  107672910.37248     -1094.5704         51.2004
  25463746.750   133812830.363 6     -3321.672          39.600
  21783267.7034  114472028.99148      2569.4184         49.2004
  24879024.5164  130740169.95846      -484.5084         38.6004
  23579004.8364  123908475.17047      3140.4694         44.9004
 11 10 21 21  4 18.0000000  0 11G13G32G17G20G04G07G23G31G10G30G02
  20119094.8914  105726491.31848       676.8244         49.0004
  24954265.1884  131135722.57647     -3003.0394         42.7004
  24739185.227   130005305.932 6     -3175.867          40.200
  22292217.9144  117146750.57947     -2802.8954         47.6004
  20869794.8594  109671446.65448       392.8834         51.2004
  23824175.727   125197000.924 7      3697.043          43.700
  20489661.1024  107674005.11548     -1094.7774         51.1004
  25464378.547   133816152.171 6     -3321.918          39.400
  21782778.7974  114469459.66348      2569.4024         49.5004
  24879117.3444  130740654.81546      -485.0044         38.8004
  23578407.5944  123905334.81547      3140.3714         44.6004
 11 10 21 21  4 19.0000000  0 11G13G32G17G20G04G07G23G31G10G30G02
  20118966.0634  105725814.69948       676.5084         48.7004
  24954837.0704  131138725.69147     -3003.0164         43.0004
  24739789.805   130008481.791 6     -3175.750          40.100
  22292751.1724  117149553.62247     -2803.1134         47.7004
  20869720.5164  109671054.03448       392.4654         51.1004
  23823472.883   125193303.871 7      3697.176          43.800
  20489869.3364  107675100.12148     -1095.1054         51.1004
  25465009.789   133819474.017 6     -3321.828          38.900
  21782289.6254  114466890.45048      2569.2974         49.5004
  24879208.6414  130741140.16146      -485.6844         39.1004
  23577809.6884  123902194.61047      3140.2544         45.0004
 11 10 21 21  4 20.0000000  0 11G13G32G17G20G04G07G23G31G10G30G02
  20118837.2894  105725138.83648       675.5434         48.9004
  24955408.8444  131141729.08047     -3003.5204         43.0004
  24740394.414   130011657.919 6     -3176.285          39.900
  22293284.8134  117152357.12647     -2803.7854         47.6004
  20869645.7504  109670662.26948       391.2424         51.2004
  23822769.227   125189607.191 7      3696.535          43.600
  20490078.1094  107676195.80348     -1095.9844         51.1004
  25465642.289   133822796.328 6     -3322.680          39.000
  21781801.3054  114464321.71048      2568.5124         49.5004
  24879300.3524  130741626.36346      -486.6684         39.1004
  23577212.5084  123899054.94947      3139.4064         44.3004
 11 10 21 21  4 21.0000000  0 11G13G32G17G20G04G07G23G31G10G30G02
  20118708.6484  105724463.42548       675.0044         48.9004
  24955979.8984  131144732.43547     -3003.4614         42.8004
  24740997.938   130014834.006 6     -3176.152          39.100
  22293818.5784  117155160.78947     -2804.0204         47.4004
  20869571.4454  109670271.07448       390.7934         51.0004
  23822065.555   125185910.535 7      3696.496          43.600
  20490286.7584  107677291.81548     -1096.3714         50.9004
  25466274.148   133826118.723 6     -3322.660          38.900
  21781312.1174  114461753.15248      2568.3164         50.0004
  24879393.1954  130742113.14046      -487.3674         38.7004
  23576614.9534  123895915.48147      3139.1564         45.0004
 11 10 21 21  4 22.0000000  0 11G13G32G17G20G04G07G23G31G10G30G02
  20118580.2734  105723788.46848       674.6604         49.1004
  24956551.2814  131147735.76347     -3003.4654         43.2004
  24741602.688   130018010.079 6     -3176.125          39.500
  22294352.1954  117157964.64147     -2804.0084         47.1004
  20869497.0314  109669880.45848       390.1844         51.1004
  23821362.063   125182213.924 7      3696.527          43.900
  20490495.0784  107678388.19348     -1096.6844         51.1004
  25466906.266   133829441.315 6     -3322.781          39.500
  21780823.4844  114459184.80148      2568.1764         50.0004
  24879485.5234  130742600.41846      -487.6054         37.8004
  23576017.0164  123892776.24347      3139.0164         44.1004
 11 10 21 21  4 23.0000000  0 11G13G32G17G20G04G07G23G31G10G30G02
  20118451.9064  105723114.11748       673.9144         48.8004
  24957122.8834  131150739.19547     -3003.6134         43.1004
  24742207.102   130021186.268 6     -3176.387          40.000
  22294885.8444  117160768.78447     -2804.4844         47.0004
  20869422.4694  109669490.56848       389.3984         50.9004
  23820658.625   125178517.495 7      3696.148          44.500
  20490704.3914  107679485.06548     -1097.2774         51.4004
  25467539.750   133832764.112 6     -3323.117          38.900
  21780334.5704  114456616.73948      2567.7194         50.1004
  24879578.4614  130743088.46046      -488.4844         37.3004
  23575419.5944  123889637.39647      3138.4614         44.4004
 11 10 21 21  4 24.0000000  0 11G13G32G17G20G04G07G23G31G10G30G02
  20118323.9064  105722440.40848       673.3054         48.7004
  24957694.5944  131153742.80847     -3003.7344         43.4004
  24742811.875   130024362.610 6     -3176.539          40.200
  22295419.1484  117163573.31447     -2804.8204         47.0004
  20869348.4844  109669101.44848       388.7544         50.7004
  23819955.219   125174821.307 7      3696.063          44.100
  20490912.9224  107680582.47548     -1097.7974         51.6004
  25468172.023   133836087.318 6     -3323.590          38.900
  21779845.6334  114454049.05748      2567.4144         49.8004
  24879671.9534  130743577.28046      -489.2704         37.3004
  23574822.9614  123886498.94747      3138.1484         43.9004
 11 10 21 21  4 25.0000000  0 11G13G32G17G20G04G07G23G31G10G30G02
  20118195.9694  105721767.14648       672.8834         49.0004
  24958265.9844  131156746.43347     -3003.7384         43.6004
  24743415.859   130027538.952 6     -3176.531          40.500
  22295952.8284  117166378.01747     -2804.9374         46.8004
  20869274.6884  109668712.92948       388.0864         51.0004
  23819252.133   125171125.171 7      3696.023          43.900
  20491121.5784  107681680.27048     -1098.1374         51.7004
  25468805.438   133839410.574 6     -3323.574          38.800
  21779357.6334  114451481.58948      2567.2074         49.6004
  24879765.6174  130744066.67146      -489.8914         37.6004
  23574225.4454  123883360.75847      3137.8594         43.9004
 11 10 21 21  4 26.0000000  0 11G13G32G17G20G04G07G23G31G10G30G02
  20118067.8594  105721094.39948       672.4224         49.0004
  24958837.1954  131159750.05847     -3003.7384         43.9004
  24744020.734   130030715.296 6     -3176.395          40.800
  22296486.8444  117169182.93347     -2805.0864         46.7004
  20869200.9454  109668324.99548       387.5704         51.1004
  23818548.648   125167429.148 7      3695.891          43.800
  20491330.5474  107682778.46448     -1098.4774         51.3004
  25469437.547   133842734.143 6     -3323.668          38.500
  21778868.8674  114448914.34948      2567.0554         49.7004
  24879858.9384  130744556.66946      -490.3714         37.6004
  23573627.9304  123880222.82447      3137.7974         44.1004
 11 10 21 21  4 27.0000000  0 11G13G32G17G20G04G07G23G31G10G30G02
  20117939.6644  105720422.28048       671.5744         49.5004
  24959409.1254  131162753.82047     -3003.9104         43.2004
  24744624.789   130033891.783 6     -3176.617          40.200
  22297020.4844  117171988.18647     -2805.5704         47.2004
  20869127.4694  109667937.79748       386.6374         51.2004
  23817845.242   125163733.307 7      3695.582          43.600
  20491539.4144  107683877.15648     -1099.1524         51.7004
  25470069.461   133846057.933 6     -3324.078          39.200
  21778380.4694  114446347.43448      2566.6334         49.9004
  24879951.7974  130745047.35546      -491.1994         37.3004
  23573031.6024  123877085.27547      3137.2344         44.3004
 11 10 21 21  4 28.0000000  0 11G13G32G17G20G04G07G23G31G10G30G02
  20117811.9304  105719750.73048       671.4454         50.0004
  24959980.8914  131165757.71947     -3003.8094         43.3004
  24745229.633   130037068.383 6     -3176.359          40.600
  22297554.6414  117174793.74847     -2805.5164         47.0004
  20869053.8284  109667551.29048       386.3284         51.6004
  23817142.461   125160037.644 7      3695.750          43.900
  20491748.8984  107684976.34548     -1099.2034         51.5004
  25470702.219   133849382.101 6     -3324.113          39.200
  21777892.0394  114443780.83848      2566.7274         49.8004
  24880044.8204  130745538.76246      -491.4104         37.7004
  23572434.2664  123873948.10847      3137.2854         44.2004
 11 10 21 21  4 29.0000000  0 11G13G32G17G20G04G07G23G31G10G30G02
  20117683.9614  105719079.74748       670.8794         49.7004
  24960552.0944  131168761.69347     -3003.7464         43.7004
  24745834.398   130040245.042 6     -3176.465          40.500
  22298088.1254  117177599.58247     -2805.7664         47.3004
  20868980.1954  109667165.46948       385.6804         51.1004
  23816439.328   125156342.129 7      3695.602          44.200
  20491957.9384  107686075.97448     -1099.6214         51.4004
  25471334.172   133852706.446 6     -3324.332          39.200
  21777403.8914  114441214.54848      2566.3634         49.7004
  24880139.4844  130746030.82246      -492.1334         37.9004
  23571837.2424  123870811.28547      3136.8324         44.2004
 11 10 21 21  4 30.0000000  0 11G13G32G17G20G04G07G23G31G10G30G02
  20117556.5234  105718409.32248       670.0984         49.5004
  24961123.6334  131171765.74847     -3004.1454         43.2004
  24746438.430   130043421.788 6     -3176.801          40.200
  22298622.5554  117180405.70747     -2806.3444         47.4004
  20868906.9454  109666780.33248       384.7424         51.0004
  23815735.484   125152646.787 7      3695.145          44.200
  20492167.3914  107687176.10948     -1100.4344         51.4004
  25471967.852   133856031.009 6     -3324.602          39.000
  21776915.2344  114438648.56148      2565.7464         49.8004
  24880232.5864  130746523.63346      -493.0624         37.8004
  23571240.7734  123867674.77747      3136.2304         44.3004
 11 10 21 21  4 31.0000000  0 11G13G32G17G20G04G07G23G31G10G30G02
  20117429.1484  105717739.33348       669.8244         49.2004
  24961695.0634  131174769.77447     -3004.0864         43.2004
  24747043.078   130046598.496 6     -3176.781          40.300
  22299156.7504  117183211.97447     -2806.4184         47.5004
  20868833.5004  109666395.76548       384.2544         51.1004
  23815032.266   125148951.445 7      3695.352          44.500
  20492377.1254  107688276.53048     -1100.5554         51.3004
  25472599.844   133859355.768 6     -3324.672          38.700
  21776427.0164  114436082.71348      2565.7034         49.9004
  24880327.0164  130747016.92946      -493.5474         37.9004
  23570643.5784  123864538.46947      3136.2034         44.2004
 11 10 21 21  4 32.0000000  0 11G13G32G17G20G04G07G23G31G10G30G02
  20117302.0004  105717070.00448       668.7774         49.3004
  24962267.0314  131177773.98047     -3004.5904         42.5004
  24747647.344   130049775.376 6     -3177.180          40.400
  22299690.3364  117186018.60647     -2807.0354         47.3004
  20868760.7504  109666011.96348       383.1484         51.0004
  23814329.391   125145256.368 7      3694.828          44.400
  20492586.5004  107689377.55348     -1101.5004         51.5004
  25473232.680   133862680.888 6     -3325.641          38.600
  21775939.0164  114433517.27248      2565.0434         49.8004
  24880421.4304  130747511.02846      -494.5554         37.9004
  23570046.5314  123861402.61547      3135.4454         44.1004
 11 10 21 21  4 33.0000000  0 11G13G32G17G20G04G07G23G31G10G30G02
  20117174.5234  105716401.11448       668.6604         49.5004
  24962838.7894  131180778.16046     -3004.2154         41.9004
  24748252.039   130052952.221 6     -3176.820          40.900
  22300224.5164  117188825.43047     -2807.0004         47.5004
  20868687.9454  109665628.71148       382.9104         51.5004
  23813625.820   125141561.328 7      3694.898          43.900
  20492795.8524  107690478.89448     -1101.5354         51.8004
  25473865.055   133866006.053 6     -3325.348          38.200
  21775450.2344  114430951.97148      2565.2624         49.6004
  24880515.2894  130748005.64846      -495.0274         38.2004
  23569450.4614  123858266.95647      3135.4734         43.9004
 11 10 21 21  4 34.0000000  0 11G13G32G17G20G04G07G23G31G10G30G02
  20117047.3054  105715732.78448       667.9104         49.2004
  24963410.8754  131183782.43547     -3004.4884         42.0004
  24748856.727   130056129.143 6     -3177.141          41.100
  22300758.8284  117191632.49747     -2807.3984         47.8004
  20868615.3204  109665246.15448       382.0664         51.2004
  23812922.594   125137866.416 7      3694.656          43.700
  20493005.5164  107691580.70048     -1102.1914         51.7004
  25474498.328   133869331.522 6     -3325.660          37.900
  21774962.8444  114428386.97948      2564.7624         49.1004
  24880609.8364  130748500.90446      -495.8324         38.1004
  23568854.4224  123855131.61947      3135.0234         44.0004
 11 10 21 21  4 35.0000000  0 11G13G32G17G20G04G07G23G31G10G30G02
  20116920.0704  105715065.08648       667.3834         49.3004
  24963982.4304  131186786.83047     -3004.3954         42.6004
  24749461.328   130059306.197 6     -3177.082          41.300
  22301292.9694  117194439.93147     -2807.6454         47.4004
  20868542.5784  109664864.33448       381.5044         51.3004
  23812219.203   125134171.735 7      3694.613          44.000
  20493215.3594  107692683.04048     -1102.6254         51.7004
  25475130.852   133872657.293 6     -3325.996          38.100
  21774474.5164  114425822.37348      2564.3984         48.9004
  24880703.0164  130748996.96546      -496.5044         38.3004
  23568257.5634  123851996.73147      3134.6914         44.0004
 11 10 21 21  4 36.0000000  0 11G13G32G17G20G04G07G23G31G10G30G02
  20116793.4144  105714397.90348       666.6054         49.1004
  24964553.6254  131189791.30447     -3004.7584         42.7004
  24750065.766   130062483.301 6     -3177.418          41.800
  22301827.1334  117197247.56447     -2807.9964         47.5004
  20868469.9304  109664483.15348       380.4734         51.6004
  23811516.859   125130477.157 7      3694.215          44.100
  20493425.2734  107693785.77548     -1103.3094         51.7004
  25475763.398   133875983.256 6     -3326.402          37.700
  21773986.3444  114423257.97248      2563.9144         49.2004
  24880798.2274  130749493.63846      -497.3404         38.5004
  23567661.3054  123848862.11347      3134.1174         44.2004
 11 10 21 21  4 37.0000000  0 11G13G32G17G20G04G07G23G31G10G30G02
  20116666.5394  105713731.15148       666.5434         48.9004
  24965125.4454  131192795.73647     -3004.5664         42.1004
  24750670.383   130065660.344 6     -3177.027          41.700
  22302361.5164  117200055.38847     -2807.8444         47.3004
  20868397.5634  109664102.51648       380.3554         51.4004
  23810813.734   125126782.627 7      3694.570          43.800
  20493635.3594  107694888.86048     -1103.2624         51.5004
  25476396.586   133879309.328 6     -3326.035          37.800
  21773499.0864  114420693.76048      2564.1174         49.3004
  24880893.1174  130749990.83146      -497.6134         38.1004
  23567064.6174  123845727.71747      3134.2194         44.5004
 11 10 21 21  4 38.0000000  0 11G13G32G17G20G04G07G23G31G10G30G02
  20116539.5554  105713064.99948       665.8364         49.0004
  24965697.2194  131195800.26247     -3004.6764         42.1004
  24751275.227   130068837.492 6     -3177.168          40.200
  22302895.8834  117202863.52247     -2808.3244         47.4004
  20868325.2424  109663722.59148       379.5594         51.5004
  23810110.648   125123088.264 7      3694.188          43.900
  20493845.2974  107695992.42648     -1103.8014         51.6004
  25477029.406   133882635.737 6     -3326.660          37.300
  21773010.8134  114418129.86548      2563.7624         49.3004
  24880987.7194  130750488.75546      -498.2854         38.2004
  23566468.0944  123842593.67147      3133.8054         44.4004
 11 10 21 21  4 39.0000000  0 11G13G32G17G20G04G07G23G31G10G30G02
  20116413.0314  105712399.46748       665.2384         48.9004
  24966269.0704  131198804.92547     -3004.7034         42.5004
  24751879.828   130072014.789 6     -3177.391          40.200
  22303430.4924  117205671.95447     -2808.5514         47.5004
  20868252.9844  109663343.38548       378.9534         51.5004
  23809407.797   125119394.111 7      3694.008          44.400
  20494055.1644  107697096.50948     -1104.2734         51.8004
  25477662.055   133885962.394 6     -3326.777          37.900
  21772523.0704  114415566.31648      2563.4384         49.5004
  24881083.1724  130750987.40546      -499.1174         38.0004
  23565871.9694  123839460.01247      3133.5274         44.8004
 11 10 21 21  4 40.0000000  0 11G13G32G17G20G04G07G23G31G10G30G02
  20116286.1954  105711734.39948       664.8594         49.0004
  24966841.6024  131201809.60147     -3004.6604         42.7004
  24752484.758   130075192.077 6     -3177.273          40.400
  22303964.9304  117208480.58347     -2808.6724         47.2004
  20868181.0084  109662964.81248       378.3794         51.4004
  23808704.594   125115700.017 7      3694.031          44.100
  20494264.9924  107698200.97248     -1104.5744         52.1004
  25478295.211   133889289.229 6     -3326.965          38.300
  21772035.6094  114413002.98248      2563.2814         49.7004
  24881177.3594  130751486.61746      -499.5394         37.9004
  23565275.7034  123836326.60047      3133.3204         44.4004
 11 10 21 21  4 41.0000000  0 11G13G32G17G20G04G07G23G31G10G30G02
  20116159.9384  105711069.87048       664.2774         49.2004
  24967412.4384  131204814.35747     -3004.7974         43.0004
  24753088.992   130078369.420 6     -3177.262          40.700
  22304499.3284  117211289.47647     -2809.0514         47.2004
  20868109.3674  109662586.88248       377.6414         51.3004
  23808002.008   125112006.060 7      3693.895          44.800
  20494475.5944  107699305.88648     -1105.0984         52.1004
  25478928.313   133892616.308 6     -3327.246          38.600
  21771547.5634  114410439.90548      2562.8984         49.7004
  24881271.9304  130751986.50946      -500.1294         38.4004
  23564679.0944  123833193.51847      3132.9964         44.7004
 11 10 21 21  4 42.0000000  0 11G13G32G17G20G04G07G23G31G10G30G02
  20116033.4454  105710405.95648       663.5164         49.0004
  24967984.6484  131207819.20247     -3004.9614         43.5004
  24753693.656   130081546.885 6     -3177.676          41.300
  22305033.7504  117214098.69547     -2809.4374         47.1004
  20868037.1564  109662209.65848       376.7814         50.9004
  23807299.188   125108312.282 7      3693.566          45.100
  20494686.0784  107700411.30348     -1105.8014         51.8004
  25479561.945   133895943.631 6     -3327.586          38.600
  21771059.8284  114407877.17748      2562.4144         49.4004
  24881367.8284  130752487.11146      -501.0944         38.7004
  23564082.9144  123830060.81347      3132.3954         44.5004
 11 10 21 21  4 43.0000000  0 11G13G32G17G20G04G07G23G31G10G30G02
  20115907.3754  105709742.56948       663.2274         49.1004
  24968556.6334  131210824.14547     -3004.7734         43.7004
  24754298.313   130084724.436 6     -3177.461          41.300
  22305568.6414  117216908.17647     -2809.4924         46.7004
  20867965.6174  109661833.14448       376.2814         51.3004
  23806596.305   125104618.669 7      3693.668          45.000
  20494896.6954  107701517.15548     -1105.9454         51.7004
  25480195.352   133899271.229 6     -3327.504          38.300
  21770572.2504  114405314.73848      2562.4384         49.4004
  24881463.1644  130752988.36646      -501.5434         38.1004
  23563487.1564  123826928.42847      3132.3164         44.7004
 11 10 21 21  4 44.0000000  0 11G13G32G17G20G04G07G23G31G10G30G02
  20115781.0864  105709079.68448       662.6174         49.2004
  24969128.2344  131213829.12847     -3005.0084         43.0004
  24754903.234   130087901.974 6     -3177.547          41.200
  22306103.3204  117219717.87547     -2809.9224         47.1004
  20867894.2194  109661457.20348       375.5554         51.3004
  23805892.742   125100925.135 7      3693.414          44.500
  20495106.8914  107702623.41548     -1106.5744         52.0004
  25480828.375   133902599.022 6     -3327.883          38.400
  21770084.6024  114402752.51048      2562.0784         49.4004
  24881558.3754  130753490.23546      -502.2154         37.9004
  23562890.7584  123823796.31747      3131.9884         45.0004
 11 10 21 21  4 45.0000000  0 11G13G32G17G20G04G07G23G31G10G30G02
  20115655.0784  105708417.29748       662.1454         49.3004
  24969700.4304  131216834.10347     -3004.9844         42.1004
  24755507.820   130091079.521 6     -3177.535          41.300
  22306638.3674  117222527.77647     -2809.9924         47.0004
  20867822.5234  109661081.88448       375.0514         51.6004
  23805190.438   125097231.698 7      3693.445          44.900
  20495317.6564  107703730.06648     -1106.8404         51.9004
  25481461.844   133905926.983 6     -3328.004          38.400
  21769596.8834  114400190.50148      2561.9264         48.8004
  24881654.9454  130753992.72546      -502.6844         37.9004
  23562294.8984  123820664.46047      3131.7704         44.8004
 11 10 21 21  4 46.0000000  0 11G13G32G17G20G04G07G23G31G10G30G02
  20115529.2194  105707755.50448       661.6294         49.0004
  24970271.8054  131219839.20147     -3004.9924         42.4004
  24756112.586   130094257.170 6     -3177.637          41.100
  22307172.8204  117225337.98047     -2810.1844         47.0004
  20867751.4384  109660707.28848       374.3874         51.5004
  23804487.367   125093538.407 7      3693.434          44.700
  20495528.1954  107704837.20348     -1107.1724         52.0004
  25482095.445   133909255.161 6     -3328.098          38.700
  21769109.5704  114397628.81348      2561.7544         48.3004
  24881750.2034  130754495.89846      -503.3484         37.3004
  23561699.0004  123817532.98347      3131.4774         44.6004
 11 10 21 21  4 47.0000000  0 11G13G32G17G20G04G07G23G31G10G30G02
  20115403.3594  105707094.23948       661.0314         49.1004
  24970843.1024  131222844.35146     -3005.1024         41.6004
  24756717.102   130097434.887 6     -3177.719          40.700
  22307707.3984  117228148.44847     -2810.5904         47.3004
  20867680.2584  109660333.36748       373.6524         51.2004
  23803785.070   125089845.266 7      3693.145          45.000
  20495738.8674  107705944.79048     -1107.7114         51.9004
  25482729.391   133912583.689 6     -3328.637          38.200
  21768622.1174  114395067.39648      2561.3674         48.5004
  24881845.2344  130754999.70146      -503.9104         37.7004
  23561103.1414  123814401.81947      3131.0434         44.4004
 11 10 21 21  4 48.0000000  0 11G13G32G17G20G04G07G23G31G10G30G02
  20115277.5704  105706433.44148       660.4414         49.0004
  24971414.8284  131225849.49246     -3005.2774         41.3004
  24757321.922   130100612.564 6     -3177.824          40.500
  22308242.3594  117230959.07447     -2810.8124         47.5004
  20867608.9534  109659960.00348       372.8714         51.6004
  23803082.320   125086152.190 7      3692.945          44.800
  20495949.8524  107707052.73548     -1108.2894         52.0004
  25483362.734   133915912.256 6     -3328.836          38.300
  21768134.7664  114392506.18048      2561.0514         49.1004
  24881941.6724  130755504.08846      -504.8754         38.2004
  23560507.1334  123811270.90047      3130.6174         44.3004
 11 10 21 21  4 49.0000000  0 12G16G13G32G17G20G04G07G23G31G10G30G02
  25401308.930   133484800.57315      2656.613          35.900
  20115152.1644  105705773.35048       659.8524         48.7004
  24971987.1564  131228854.89946     -3005.5554         40.9004
  24757927.258   130103790.500 6     -3177.945          40.900
  22308777.1564  117233770.15147     -2811.2274         47.6004
  20867538.1254  109659587.48048       372.1334         51.5004
  23802379.195   125082459.392 7      3692.762          44.700
  20496160.6954  107708161.30348     -1108.8554         51.9004
  25483996.227   133919241.263 6     -3329.031          38.800
  21767647.4064  114389945.42448      2560.5514         48.3004
  24882037.8984  130756009.30246      -505.5354         37.7004
  23559911.6094  123808140.45347      3130.2114         44.3004
 11 10 21 21  4 50.0000000  0 12G16G13G32G17G20G04G07G23G31G10G30G02
  25400803.367   133482144.306 5      2656.059          35.400
  20115026.3984  105705113.85248       659.0904         48.6004
  24972558.7194  131231860.37546     -3005.6764         41.4004
  24758531.695   130106968.507 6     -3178.219          41.000
  22309312.2274  117236581.52647     -2811.6214         47.9004
  20867467.4304  109659215.64648       371.3914         51.3004
  23801676.836   125078766.803 7      3692.363          45.000
  20496371.8364  107709270.34548     -1109.3634         51.8004
  25484629.586   133922570.536 6     -3329.648          38.100
  21767160.1724  114387384.97648      2560.1954         48.2004
  24882134.4694  130756515.25346      -506.4844         38.0004
  23559316.0234  123805010.38547      3129.9024         44.1004
 11 10 21 21  4 51.0000000  0 12G16G13G32G17G20G04G07G23G31G10G30G02
  25400295.945   133479488.117 5      2656.113          33.100
  20114900.9924  105704454.78948       658.7894         48.6004
  24973131.3204  131234865.86846     -3005.6174         41.2004
  24759136.375   130110146.479 6     -3178.113          41.100
  22309846.8914  117239393.04748     -2811.6334         48.0004
  20867396.8594  109658844.37548       370.9024         51.3004
  23800974.367   125075074.226 7      3692.469          45.400
  20496582.9534  107710379.72648     -1109.5864         51.6004
  25485263.313   133925899.936 6     -3329.449          37.900
  21766673.1564  114384824.68448      2560.0864         48.7004
  24882231.1254  130757021.72946      -506.8484         38.7004
  23558720.2504  123801880.52747      3129.6414         43.9004
 11 10 21 21  4 52.0000000  0 12G16G13G32G17G20G04G07G23G31G10G30G02
  25399790.414   133476831.991 5      2656.039          32.600
  20114775.9924  105703796.18748       658.4064         48.7004
  24973703.1094  131237871.31346     -3005.4264         40.9004
  24759741.727   130113324.429 6     -3177.953          41.400
  22310382.4844  117242204.75447     -2811.8284         47.9004
  20867326.2814  109658473.70648       370.3524         51.1004
  23800271.688   125071381.714 7      3692.426          45.200
  20496794.4774  107711489.47848     -1109.8914         51.7004
  25485896.188   133929229.465 6     -3329.625          37.900
  21766186.0004  114382264.58448      2560.0044         49.1004
  24882327.9454  130757528.76946      -507.3954         39.5004
  23558125.0164  123798750.90347      3129.5004         43.6004
 11 10 21 21  4 53.0000000  0 12G16G13G32G17G20G04G07G23G31G10G30G02
  25399284.367   133474176.280 5      2655.668          32.300
  20114650.5704  105703138.27448       657.5784         49.0004
  24974275.1174  131240876.95646     -3005.5824         41.3004
  24760345.969   130116502.583 6     -3178.090          40.400
  22310917.2114  117245016.85447     -2812.1644         47.7004
  20867255.8674  109658103.84748       369.5434         51.0004
  23799569.180   125067689.452 7      3692.250          45.300
  20497005.6804  107712599.79448     -1110.4844         51.5004
  25486530.305   133932559.374 6     -3329.996          38.400
  21765698.6724  114379704.90348      2559.5704         48.3004
  24882424.2894  130758036.61146      -508.2114         39.1004
  23557529.7424  123795621.75947      3128.9614         43.8004
 11 10 21 21  4 54.0000000  0 12G16G13G32G17G20G04G07G23G31G10G30G02
  25398778.828   133471520.769 5      2655.305          32.500
  20114525.6644  105702480.81148       657.0634         48.5004
  24974847.1024  131243882.62346     -3005.9064         41.8004
  24760950.375   130119680.717 6     -3178.227          39.600
  22311452.5704  117247829.13948     -2812.5594         48.0004
  20867185.5394  109657734.54648       368.8554         51.2004
  23798866.078   125063997.278 7      3692.031          45.800
  20497216.8594  107713710.49948     -1111.0784         51.8004
  25487164.070   133935889.440 6     -3330.117          37.900
  21765211.5474  114377145.42847      2559.2664         47.9004
  24882520.9064  130758545.03346      -508.8324         39.4004
  23556934.1564  123792492.82947      3128.6604         43.5004
 11 10 21 21  4 55.0000000  0 12G16G13G32G17G20G04G07G23G31G10G30G02
  25398274.867   133468865.446 5      2655.195          32.500
  20114400.3134  105701823.86448       656.8164         48.4004
  24975419.0164  131246888.29347     -3005.6294         42.1004
  24761555.039   130122858.899 6     -3178.172          39.800
  22311987.5704  117250641.66047     -2812.5784         47.5004
  20867115.4454  109657365.89248       368.4304         51.1004
  23798163.648   125060305.194 7      3692.105          45.900
  20497428.2814  107714821.58648     -1111.3124         51.8004
  25487797.273   133939219.693 6     -3330.176          38.500
  21764724.8204  114374586.18948      2559.1374         48.3004
  24882617.6564  130759054.07646      -509.2384         39.0004
  23556338.7664  123789364.20247      3128.5124         43.6004
 11 10 21 21  4 56.0000000  0 12G16G13G32G17G20G04G07G23G31G10G30G02
  25397770.461   133466210.268 5      2654.637          32.900
  20114275.8284  105701167.44247       655.9414         47.8004
  24975991.0944  131249894.01847     -3005.9804         42.1004
  24762160.383   130126037.091 6     -3178.520          39.700
  22312523.0394  117253454.39147     -2813.0394         47.2004
  20867045.4694  109656997.86548       367.4414         51.3004
  23797461.289   125056613.211 7      3691.688          45.400
  20497639.7894  107715933.10948     -1111.9774         52.1004
  25488431.781   133942550.175 6     -3330.980          38.100
  21764237.8984  114372027.20847      2558.6724         47.9004
  24882713.9304  130759563.74546      -510.1874         38.8004
  23555743.7194  123786235.87747      3127.9454         43.8004
 11 10 21 21  4 57.0000000  0 12G16G13G32G17G20G04G07G23G31G10G30G02
  25397264.953   133463555.483 5      2654.582          33.200
  20114150.4144  105700511.65247       655.4654         47.3004
  24976562.6564  131252899.90447     -3005.9804         42.3004
  24762764.891   130129215.432 6     -3178.371          39.800
  22313058.6564  117256267.48547     -2813.2664         46.9004
  20866975.5784  109656630.58248       366.9104         50.5004
  23796758.742   125052921.485 7      3691.609          45.800
  20497851.3914  107717045.15948     -1112.3874         51.9004
  25489065.000   133945880.923 6     -3330.859          38.100
  21763750.9774  114369468.57247      2558.4964         46.8004
  24882810.8594  130760074.14946      -510.8524         38.3004
  23555148.5084  123783107.95547      3127.7154         44.1004
 11 10 21 21  4 58.0000000  0 12G16G13G32G17G20G04G07G23G31G10G30G02
  25396760.141   133460900.844 5      2654.625          33.400
  20114026.0634  105699856.39447       655.0594         47.9004
  24977135.1334  131255905.86847     -3005.9574         42.2004
  24763369.250   130132393.845 6     -3178.449          40.000
  22313593.4844  117259080.83847     -2813.3984         46.8004
  20866905.7274  109656263.96548       366.2974         50.4004
  23796056.367   125049229.893 7      3691.598          46.000
  20498063.1884  107718157.65948     -1112.7274         51.9004
  25489698.938   133949212.001 6     -3331.426          37.700
  21763264.4304  114366910.24247      2558.2814         47.1004
  24882908.4144  130760585.21446      -511.4304         38.8004
  23554553.3054  123779980.35847      3127.5704         44.1004
 11 10 21 21  4 59.0000000  0 12G16G13G32G17G20G04G07G23G31G10G30G02
  25396255.328   133458246.441 5      2654.340          33.200
  20113901.7274  105699201.66148       654.5554         48.0004
  24977706.9064  131258911.86946     -3005.9494         41.6004
  24763974.203   130135572.267 6     -3178.297          39.800
  22314129.0634  117261894.43847     -2813.6054         47.0004
  20866836.3054  109655897.98548       365.8364         50.5004
  23795353.938   125045538.389 7      3691.652          45.800
  20498274.7584  107719270.56548     -1112.9924         51.8004
  25490333.078   133952543.193 6     -3331.305          38.400
  21762777.5944  114364352.13547      2558.1414         47.5004
  24883006.1564  130761096.90146      -511.8594         38.9004
  23553958.2424  123776853.04147      3127.3364         44.3004
 11 10 21 21  5  0.0000000  0 12G16G13G32G17G20G04G07G23G31G10G30G02
  25395749.359   133455592.271 5      2654.160          33.300
  20113777.0394  105698547.51348       653.7624         48.2004
  24978279.0474  131261917.98546     -3006.2384         41.8004
  24764578.531   130138750.832 6     -3178.680          39.700
  22314664.5164  117264708.32647     -2814.1524         47.3004
  20866766.7504  109655532.73148       364.7974         51.2004
  23794651.516   125041847.086 7      3691.070          45.600
  20498486.5864  107720383.96648     -1113.7464         51.5004
  25490966.875   133955874.652 6     -3331.777          38.700
  21762290.3524  114361794.36347      2557.5234         47.7004
  24883103.1174  130761609.30646      -512.7934         38.6004
  23553363.1884  123773726.10947      3126.6334         44.3004
 11 10 21 21  5  1.0000000  0 12G16G13G32G17G20G04G07G23G31G10G30G02
  25395245.156   133452938.346 5      2653.793          33.400
  20113652.6804  105697893.87748       653.2464         48.1004
  24978851.2274  131264924.12947     -3006.2584         42.1004
  24765183.734   130141929.432 6     -3178.738          39.400
  22315200.2734  117267522.46347     -2814.3874         47.2004
  20866697.5554  109655168.09448       364.1914         51.1004
  23793948.797   125038155.890 7      3691.055          45.100
  20498698.5394  107721497.79148     -1114.1644         51.7004
  25491600.703   133959206.344 6     -3332.078          38.500
  21761803.8984  114359236.83747      2557.3484         47.3004
  24883200.6024  130762122.35146      -513.3164         38.3004
  23552767.7584  123770599.48047      3126.2974         43.8004
 11 10 21 21  5  2.0000000  0 12G16G13G32G17G20G04G07G23G31G10G30G02
  25394739.320   133450284.586 5      2653.578          33.000
  20113528.2734  105697240.74048       652.8094         48.3004
  24979423.0394  131267930.30846     -3006.2544         41.7004
  24765788.828   130145108.016 6     -3178.773          39.800
  22315735.5234  117270336.78147     -2814.5204         47.5004
  20866628.0554  109654804.06648       363.6374         51.5004
  23793246.281   125034464.767 7      3691.000          45.300
  20498910.8204  107722612.01748     -1114.5394         52.0004
  25492235.555   133962538.210 6     -3331.898          38.500
  21761317.1884  114356679.53947      2557.0824         47.6004
  24883298.0944  130762635.99146      -513.9804         37.8004
  23552172.9224  123767473.10347      3126.1374         44.3004
 11 10 21 21  5  3.0000000  0 12G16G13G32G17G20G04G07G23G31G10G30G02
  25394234.367   133447631.035 5      2653.375          32.600
  20113404.1954  105696588.13148       652.1884         48.8004
  24979995.1724  131270936.54046     -3006.4774         41.4004
  24766393.961   130148286.635 6     -3178.871          39.600
  22316271.3674  117273151.35947     -2814.8674         47.0004
  20866559.1174  109654440.69548       362.8714         51.6004
  23792544.070   125030773.782 7      3690.645          45.400
  20499122.6884  107723726.64548     -1115.0234         52.3004
  25492870.008   133965870.276 6     -3332.332          38.800
  21760830.2894  114354122.50447      2556.7304         47.4004
  24883396.6954  130763150.26446      -514.7194         37.9004
  23551578.6564  123764347.01747      3125.8094         44.6004
 11 10 21 21  5  4.0000000  0 12G16G13G32G17G20G04G07G23G31G10G30G02
  25393729.523   133444977.685 5      2653.352          31.800
  20113280.0234  105695936.02348       651.7934         49.2004
  24980568.1564  131273942.78846     -3006.1954         40.4004
  24766999.156   130151465.277 6     -3178.680          40.000
  22316807.2814  117275966.13047     -2814.8754         47.1004
  20866489.9064  109654077.95048       362.4304         51.5004
  23791841.352   125027082.880 7      3690.793          45.400
  20499334.9144  107724841.69148     -1115.2664         51.5004
  25493503.555   133969202.554 6     -3332.426          38.400
  21760343.9614  114351565.68747      2556.6884         47.9004
  24883494.0784  130763665.15346      -515.2664         37.0004
  23550983.7584  123761221.23347      3125.6174         44.7004
 11 10 21 21  5  5.0000000  0 12G16G13G32G17G20G04G07G23G31G10G30G02
  25393223.484   133442324.806 5      2652.766          32.500
  20113156.1024  105695284.67148       651.1094         49.4004
  24981139.7734  131276949.33146     -3006.5554         40.5004
  24767603.609   130154644.199 6     -3178.898          40.500
  22317342.8364  117278781.40847     -2815.3954         47.1004
  20866421.1804  109653716.08248       361.5744         51.8004
  23791139.047   125023392.333 7      3690.563          45.600
  20499547.3834  107725957.39748     -1115.8124         51.6004
  25494137.758   133972535.261 6     -3332.766          38.700
  21759857.7584  114349009.37248      2556.2734         48.1004
  24883592.3204  130764180.91046      -516.2234         36.6004
  23550388.9774  123758095.97947      3125.1254         45.1004
 11 10 21 21  5  6.0000000  0 12G16G13G32G17G20G04G07G23G31G10G30G02
  25392718.352   133439672.018 5      2652.445          32.200
  20113032.1954  105694633.71748       650.5594         49.3004
  24981711.5554  131279955.78746     -3006.5704         40.6004
  24768208.352   130157823.045 6     -3179.023          40.600
  22317878.4924  117281596.77947     -2815.5864         47.5004
  20866351.9774  109653354.73748       360.9304         51.9004
  23790436.898   125019701.795 7      3690.301          45.000
  20499759.5394  107727073.39048     -1116.2894         51.5004
  25494772.680   133975868.023 6     -3332.980          39.200
  21759371.1484  114346453.19348      2555.9534         48.3004
  24883690.7194  130764697.16046      -516.8364         36.7004
  23549794.0084  123754970.90347      3124.7934         44.5004
 11 10 21 21  5  7.0000000  0 12G16G13G32G17G20G04G07G23G31G10G30G02
  25392215.094   133437019.542 5      2652.430          32.600
  20112908.6094  105693983.40648       650.0664         49.3004
  24982283.7034  131282962.43946     -3006.6174         41.1004
  24768813.711   130161002.050 6     -3179.078          40.900
  22318414.0944  117284412.51347     -2815.8794         47.4004
  20866283.5944  109652994.15648       360.2234         52.0004
  23789734.859   125016011.466 7      3690.211          45.000
  20499971.9384  107728189.93748     -1116.7034         52.0004
  25495406.898   133979201.187 6     -3333.207          39.400
  21758884.9694  114343897.39048      2555.6484         48.3004
  24883789.2114  130765214.21046      -517.4344         36.0004
  23549199.2274  123751846.24647      3124.4734         44.1004
 11 10 21 21  5  8.0000000  0 12G16G13G32G17G20G04G07G23G31G10G30G02
  25391710.609   133434367.200 5      2652.273          32.800
  20112785.1724  105693333.54648       649.6994         49.0004
  24982856.5084  131285969.03846     -3006.5164         41.5004
  24769418.359   130164181.000 6     -3178.887          40.800
  22318950.1024  117287228.42347     -2815.9964         47.6004
  20866215.0634  109652634.14348       359.7934         51.7004
  23789032.938   125012321.195 7      3690.273          45.100
  20500184.7584  107729306.82848     -1116.9774         52.1004
  25496040.453   133982534.422 6     -3333.215          40.000
  21758398.3204  114341341.76247      2555.5944         47.8004
  24883888.4774  130765731.77646      -517.8164         36.7004
  23548604.9534  123748721.80947      3124.4414         43.4004
 11 10 21 21  5  9.0000000  0 12G16G13G32G17G20G04G07G23G31G10G30G02
  25391206.883   133431715.141 5      2652.078          32.800
  20112661.4064  105692684.29348       648.9614         48.9004
  24983428.0944  131288975.81347     -3006.7504         42.1004
  24770023.461   130167360.069 6     -3179.148          40.800
  22319486.0084  117290044.65047     -2816.3714         47.7004
  20866146.5474  109652274.86548       358.9774         51.4004
  23788330.617   125008631.122 7      3689.988          44.900
  20500397.3134  107730424.23148     -1117.6414         52.0004
  25496675.430   133985867.984 6     -3333.793          39.800
  21757911.8524  114338786.48148      2555.0594         48.0004
  24883986.5634  130766250.08846      -518.5434         36.9004
  23548009.8444  123745597.77547      3123.7974         42.7004
 11 10 21 21  5 10.0000000  0 12G16G13G32G17G20G04G07G23G31G10G30G02
  25390702.047   133429063.165 5      2651.930          32.000
  20112537.7664  105692035.47048       648.5204         48.8004
  24984000.7114  131291982.47447     -3006.7584         42.3004
  24770628.258   130170539.104 6     -3179.152          40.500
  22320021.9774  117292861.01047     -2816.5624         46.7004
  20866078.4844  109651916.11448       358.3874         51.7004
  23787628.508   125004941.081 7      3689.883          44.900
  20500610.1644  107731541.95248     -1118.0204         51.9004
  25497309.398   133989201.624 6     -3333.750          39.700
  21757425.9064  114336231.33947      2554.9224         47.6004
  24884084.7584  130766768.95246      -519.1844         37.1004
  23547415.6644  123742473.92147      3123.6884         43.0004
 11 10 21 21  5 11.0000000  0 12G16G13G32G17G20G04G07G23G31G10G30G02
  25390197.648   133426411.615 5      2651.594          31.500
  20112414.5474  105691387.29648       648.0274         49.1004
  24984573.1644  131294989.36247     -3006.8444         42.4004
  24771233.297   130173718.304 6     -3179.027          38.800
  22320558.0634  117295677.75847     -2816.8164         46.4004
  20866010.4454  109651558.15248       357.7344         51.3004
  23786926.078   125001251.296 7      3689.758          44.700
  20500822.7504  107732660.23148     -1118.4304         51.6004
  25497943.922   133992535.621 6     -3334.008          39.400
  21756939.7344  114333676.61347      2554.6884         47.6004
  24884184.5944  130767288.57446      -519.7274         37.0004
  23546821.5474  123739350.53247      3123.2424         43.2004
 11 10 21 21  5 12.0000000  0 12G16G13G32G17G20G04G07G23G31G10G30G02
  25389693.141   133423760.384 5      2650.715          31.000
  20112291.3054  105690739.77948       646.9454         49.1004
  24985144.8204  131297996.40047     -3007.4144         42.7004
  24771838.547   130176897.645 6     -3179.746          39.700
  22321093.7814  117298494.87047     -2817.5744         47.0004
  20865942.2504  109651200.94548       356.5274         51.2004
  23786223.914   124997561.733 7      3689.133          44.800
  20501035.8524  107733779.05048     -1119.3714         51.0004
  25498577.789   133995869.943 6     -3334.703          39.400
  21756453.6954  114331122.24947      2553.9104         47.3004
  24884284.0314  130767808.96846      -521.1294         37.5004
  23546227.0554  123736227.54147      3122.4694         43.4004
 11 10 21 21  5 13.0000000  0 12G16G13G32G17G20G04G07G23G31G10G30G02
  25389186.633   133421109.263 5      2650.969          32.000
  20112168.1254  105690092.71948       646.6094         48.8004
  24985716.9614  131301003.43747     -3007.2114         42.6004
  24772444.117   130180076.982 6     -3179.527          39.900
  22321630.5084  117301312.15947     -2817.5824         47.2004
  20865874.7274  109650844.33648       356.1254         51.3004
  23785521.766   124993872.240 7      3689.262          44.700
  20501249.2344  107734898.24348     -1119.5864         51.2004
  25499212.914   133999204.420 6     -3334.641          39.500
  21755967.6414  114328568.09347      2553.9304         47.3004
  24884382.7814  130768329.93746      -521.5474         36.9004
  23545632.8204  123733104.80947      3122.3954         43.6004
 11 10 21 21  5 14.0000000  0 12G16G13G32G17G20G04G07G23G31G10G30G02
  25388683.086   133418458.333 5      2650.824          31.300
  20112045.0944  105689446.15548       646.2074         48.9004
  24986289.1174  131304010.50047     -3007.2464         42.3004
  24773048.781   130183256.314 6     -3179.418          39.800
  22322166.0234  117304129.66847     -2817.7344         47.3004
  20865806.6564  109650488.33748       355.6374         51.4004
  23784819.742   124990182.831 7      3689.320          44.900
  20501461.7034  107736017.82948     -1119.9264         51.3004
  25499846.898   134002539.031 6     -3334.754          39.600
  21755481.6254  114326014.16947      2553.7274         47.1004
  24884482.2194  130768851.46946      -521.9804         37.6004
  23545038.6954  123729982.34747      3122.3014         43.2004
 11 10 21 21  5 15.0000000  0 12G16G13G32G17G20G04G07G23G31G10G30G02
  25388179.453   133415807.703 5      2650.813          32.000
  20111921.9614  105688800.12048       645.7854         48.7004
  24986861.6954  131307017.62046     -3007.1844         41.8004
  24773653.727   130186435.701 6     -3179.406          39.900
  22322702.1564  117306947.42247     -2817.8794         47.3004
  20865739.3524  109650132.99148       355.0824         51.6004
  23784117.828   124986493.545 7      3689.289          44.700
  20501674.8674  107737137.84548     -1120.1684         51.7004
  25500481.922   134005873.899 6     -3335.074          39.300
  21754995.8444  114323460.50547      2553.5704         47.2004
  24884580.5084  130769373.65146      -522.5044         37.4004
  23544444.6174  123726860.23347      3122.0004         43.7004
 11 10 21 21  5 16.0000000  0 12G16G13G32G17G20G04G07G23G31G10G30G02
  25387676.211   133413157.217 5      2650.605          32.500
  20111799.2114  105688154.62548       645.4924         49.1004
  24987434.0314  131310024.79347     -3006.8634         42.0004
  24774258.766   130189615.128 6     -3179.191          40.700
  22323238.8524  117309765.41247     -2817.8634         47.5004
  20865671.7734  109649778.31448       354.5944         51.9004
  23783415.969   124982804.419 7      3689.328          44.700
  20501888.2344  107738258.28448     -1120.3984         52.2004
  25501116.078   134009209.032 6     -3334.941          39.700
  21754510.1484  114320907.10347      2553.5744         47.4004
  24884680.6094  130769896.49446      -522.8524         38.1004
  23543850.7894  123723738.37547      3122.0784         43.3004
 11 10 21 21  5 17.0000000  0 12G16G13G32G17G20G04G07G23G31G10G30G02
  25387170.461   133410506.947 5      2650.344          33.200
  20111676.5234  105687509.63648       644.7624         49.3004
  24988005.9224  131313032.01547     -3007.1174         42.2004
  24774863.375   130192794.600 6     -3179.418          40.800
  22323774.8594  117312583.64247     -2818.2704         47.2004
  20865604.2504  109649424.26048       353.7424         51.7004
  23782713.586   124979115.376 7      3688.977          44.500
  20502101.5554  107739379.13848     -1120.9454         52.3004
  25501751.164   134012544.283 6     -3335.277          38.900
  21754024.1724  114318353.95248      2553.1024         48.1004
  24884780.8284  130770419.95946      -523.7194         37.9004
  23543256.5704  123720616.84147      3121.4734         43.1004
 11 10 21 21  5 18.0000000  0 12G16G13G32G17G20G04G07G23G31G10G30G02
  25386666.156   133407856.937 5      2649.945          33.900
  20111553.6884  105686865.19748       644.1134         48.8004
  24988577.8204  131316039.30447     -3007.4304         42.1004
  24775468.164   130195974.112 6     -3179.641          40.200
  22324311.2974  117315402.14547     -2818.6454         46.8004
  20865536.7274  109649070.88348       353.0004         51.6004
  23782011.984   124975426.473 7      3688.855          44.500
  20502314.6644  107740500.44648     -1121.5594         52.5004
  25502385.828   134015879.815 6     -3335.637          39.000
  21753538.2664  114315801.08547      2552.7074         47.3004
  24884880.5704  130770944.10546      -524.4414         37.2004
  23542663.2114  123717495.62347      3121.1094         43.7004
 11 10 21 21  5 19.0000000  0 12G16G13G32G17G20G04G07G23G31G10G30G02
  25386161.195   133405207.117 5      2649.551          34.500
  20111431.1804  105686221.28048       643.5204         48.8004
  24989149.6884  131319046.65747     -3007.4694         42.4004
  24776073.773   130199153.653 6     -3179.613          40.400
  22324847.7424  117318220.89647     -2819.0274         47.1004
  20865470.0004  109648718.13848       352.2974         51.4004
  23781309.898   124971737.693 7      3688.594          44.900
  20502528.5784  107741622.19248     -1122.1334         52.1004
  25503020.070   134019215.559 6     -3336.055          39.000
  21753052.5554  114313248.45647      2552.3874         47.6004
  24884980.3444  130771468.87646      -525.2624         36.9004
  23542069.3524  123714374.72947      3120.6054         43.9004
 11 10 21 21  5 20.0000000  0 12G16G13G32G17G20G04G07G23G31G10G30G02
  25385656.680   133402557.606 5      2649.367          34.900
  20111308.9924  105685577.99848       643.0474         48.4004
  24989722.7894  131322054.13647     -3007.3984         42.6004
  24776678.516   130202333.382 6     -3179.762          41.000
  22325383.9064  117321039.98147     -2819.2304         47.3004
  20865403.0004  109648366.15948       351.6644         51.7004
  23780607.898   124968049.159 7      3688.465          45.000
  20502741.8284  107742744.45748     -1122.4574         52.3004
  25503654.078   134022551.570 6     -3336.066          39.100
  21752566.7274  114310696.22848      2552.0664         48.2004
  24885079.6254  130771994.36946      -525.9064         37.5004
  23541474.9384  123711254.23847      3120.3204         43.8004
 11 10 21 21  5 21.0000000  0 12G16G13G32G17G20G04G07G23G31G10G30G02
  25385152.945   133399908.395 5      2649.176          35.000
  20111186.7424  105684935.31448       642.3244         48.2004
  24990294.3834  131325061.75347     -3007.7074         42.1004
  24777283.578   130205513.172 6     -3179.926          41.400
  22325920.4304  117323859.37047     -2819.5944         47.1004
  20865336.0704  109648014.87848       350.8164         51.5004
  23779906.219   124964360.815 7      3688.176          45.100
  20502955.4454  107743867.18348     -1123.0164         52.2004
  25504290.016   134025887.856 6     -3336.441          38.700
  21752081.2114  114308144.30048      2551.7194         48.5004
  24885179.4144  130772520.61246      -526.6094         38.0004
  23540880.9064  123708134.11247      3119.8914         44.2004
 11 10 21 21  5 22.0000000  0 12G16G13G32G17G20G04G07G23G31G10G30G02
  25384649.258   133397259.350 5      2649.250          35.000
  20111064.5004  105684293.06548       642.1454         48.8004
  24990866.9924  131328069.34946     -3007.4884         41.3004
  24777888.570   130208692.932 6     -3179.535          41.500
  22326457.3674  117326678.93647     -2819.4804         47.2004
  20865269.5554  109647664.17748       350.5784         51.1004
  23779204.016   124960672.505 7      3688.406          45.000
  20503169.4774  107744990.27948     -1123.0704         52.5004
  25504925.227   134029224.248 6     -3336.266          39.400
  21751595.4924  114305592.56048      2551.8014         48.7004
  24885279.8134  130773047.36946      -526.7624         37.5004
  23540287.8054  123705014.20947      3119.9964         44.5004
 11 10 21 21  5 23.0000000  0 12G16G13G32G17G20G04G07G23G31G10G30G02
  25384145.023   133394610.638 5      2648.551          35.700
  20110942.5704  105683651.48848       641.4024         48.7004
  24991439.1804  131331077.11946     -3007.6804         40.4004
  24778494.078   130211872.863 6     -3179.746          41.400
  22326993.7584  117329498.87747     -2819.9964         47.3004
  20865202.9454  109647314.25148       349.6724         51.2004
  23778502.453   124956984.460 7      3688.066          45.500
  20503382.9064  107746113.92748     -1123.7034         52.2004
  25505559.477   134032561.112 6     -3336.816          38.600
  21751110.1564  114303041.21448      2551.3444         48.4004
  24885379.7974  130773574.92946      -527.6914         37.9004
  23539694.0944  123701894.75947      3119.3714         44.7004
 11 10 21 21  5 24.0000000  0 12G16G13G32G17G20G04G07G23G31G10G30G02
  25383640.625   133391962.004 5      2648.805          35.900
  20110820.4224  105683010.29248       641.2464         48.8004
  24992011.6094  131334084.75946     -3007.2854         41.1004
  24779099.031   130215052.700 6     -3179.457          41.800
  22327530.5634  117332318.89647     -2819.7584         47.5004
  20865136.0944  109646964.84048       349.3554         51.3004
  23777800.648   124953296.379 7      3688.398          45.000
  20503597.2584  107747237.86648     -1123.8284         52.3004
  25506195.031   134035897.965 6     -3336.578          38.800
  21750624.7814  114300489.97148      2551.4654         48.4004
  24885480.5864  130774102.97846      -528.1254         37.9004
  23539100.5004  123698775.46547      3119.4774         44.0004
 11 10 21 21  5 25.0000000  0 12G16G13G32G17G20G04G07G23G31G10G30G02
  25383136.641   133389313.627 5      2648.621          35.000
  20110698.5784  105682369.70348       640.6764         48.2004
  24992584.2344  131337092.58746     -3007.6374         40.2004
  24779704.594   130218232.660 6     -3179.730          41.100
  22328066.8674  117335139.26047     -2820.2074         47.2004
  20865069.8054  109646616.14748       348.6024         51.3004
  23777098.852   124949608.522 7      3688.074          44.600
  20503810.8914  107748362.29448     -1124.3754         51.7004
  25506829.992   134039235.100 6     -3336.844          39.000
  21750139.5554  114297939.07148      2551.0314         48.1004
  24885581.9064  130774631.74546      -528.8984         37.8004
  23538506.8524  123695656.54147      3119.0234         43.6004
 11 10 21 21  5 26.0000000  0 12G16G13G32G17G20G04G07G23G31G10G30G02
  25382632.359   133386665.507 5      2648.031          35.300
  20110576.9144  105681729.71448       639.5984         48.3004
  24993156.3834  131340100.46546     -3007.9884         40.2004
  24780309.188   130221412.708 6     -3180.141          40.600
  22328603.6954  117337959.90047     -2820.9064         47.5004
  20865003.6414  109646268.12948       347.6454         51.9004
  23776397.188   124945920.831 7      3687.500          44.100
  20504024.8204  107749487.20148     -1125.2424         51.7004
  25507464.797   134042572.519 6     -3337.762          38.900
  21749653.5314  114295388.49048      2550.3714         48.3004
  24885683.0864  130775161.20946      -529.9064         38.1004
  23537913.3834  123692538.01047      3118.2464         43.9004
 11 10 21 21  5 27.0000000  0 12G16G13G32G17G20G04G07G23G31G10G30G02
  25382128.477   133384017.599 5      2647.801          35.800
  20110455.2974  105681090.16448       639.1604         48.2004
  24993729.2584  131343108.32046     -3008.0514         40.4004
  24780914.531   130224592.738 6     -3180.219          41.400
  22329140.5634  117340780.72747     -2821.1564         47.0004
  20864937.4844  109645920.67748       346.9454         52.0004
  23775694.891   124942233.171 7      3687.410          44.300
  20504239.0474  107750612.46648     -1125.6564         51.6004
  25508099.750   134045910.055 6     -3337.707          38.100
  21749168.2114  114292838.08548      2550.1374         48.5004
  24885783.3594  130775691.23146      -530.4534         38.1004
  23537319.9064  123689419.70547      3117.9414         43.8004
 11 10 21 21  5 28.0000000  0 12G16G13G32G17G20G04G07G23G31G10G30G02
  25381625.453   133381369.864 6      2647.586          36.800
  20110333.4454  105680451.13847       638.7814         47.7004
  24994301.2584  131346116.26446     -3007.9344         40.8004
  24781519.359   130227772.778 6     -3180.051          41.900
  22329677.1954  117343601.78847     -2821.2154         46.9004
  20864871.7504  109645573.88448       346.5164         52.3004
  23774993.766   124938545.651 7      3687.402          44.600
  20504452.9064  107751738.14448     -1125.8634         51.8004
  25508735.086   134049247.792 6     -3337.961          38.300
  21748683.2814  114290287.94447      2550.0044         47.6004
  24885883.4304  130776221.87546      -530.9414         37.7004
  23536726.5704  123686301.69447      3117.9024         43.9004
 11 10 21 21  5 29.0000000  0 12G16G13G32G17G20G04G07G23G31G10G30G02
  25381122.109   133378722.499 6      2647.223          36.500
  20110211.7814  105679812.74947       638.0354         47.8004
  24994873.3754  131349124.37946     -3008.2664         41.4004
  24782124.609   130230952.951 7     -3180.238          42.100
  22330214.5314  117346423.19347     -2821.6024         47.2004
  20864805.7274  109645227.86948       345.5824         52.1004
  23774291.875   124934858.347 7      3687.105          43.600
  20504667.5004  107752864.36948     -1126.5864         51.9004
  25509369.898   134052585.851 6     -3338.344          38.000
  21748197.8984  114287738.18347      2549.5744         47.5004
  24885984.8284  130776753.26646      -531.8054         37.3004
  23536133.2114  123683184.10347      3117.3324         43.9004
 11 10 21 21  5 30.0000000  0 12G16G13G32G17G20G04G07G23G31G10G30G02
  25380617.141   133376075.244 6      2647.016          36.600
  20110090.6414  105679174.85348       637.6374         48.0004
  24995445.5864  131352132.48746     -3008.0824         41.1004
  24782729.695   130234133.170 7     -3180.098          42.100
  22330751.4454  117349244.81247     -2821.7814         47.3004
  20864740.0084  109644882.46048       345.1054         51.9004
  23773589.859   124931171.161 7      3687.113          44.100
  20504881.7194  107753990.96948     -1126.8014         52.0004
  25510005.500   134055924.069 6     -3338.262          38.200
  21747712.8444  114285188.64148      2549.3984         48.0004
  24886085.9224  130777285.25646      -532.2424         37.3004
  23535539.8754  123680066.78847      3117.1174         43.8004
 11 10 21 21  5 31.0000000  0 12G16G13G32G17G20G04G07G23G31G10G30G02
  25380113.797   133373428.277 6      2646.965          37.500
  20109969.3134  105678537.49647       637.2584         47.7004
  24996018.6094  131355140.63246     -3008.0864         41.2004
  24783335.211   130237313.448 7     -3180.160          42.100
  22331288.3594  117352066.68547     -2821.9144         47.6004
  20864674.4924  109644537.70748       344.5474         51.5004
  23772888.539   124927484.080 7      3687.094          43.900
  20505096.8834  107755118.01848     -1127.0944         51.9004
  25510641.250   134059262.482 6     -3338.309          37.900
  21747227.4924  114282639.35548      2549.3204         48.0004
  24886187.7504  130777817.88046      -532.7734         36.9004
  23534947.0314  123676949.78447      3117.0434         43.9004
 11 10 21 21  5 32.0000000  0 12G16G13G32G17G20G04G07G23G31G10G30G02
  25379610.523   133370781.512 6      2646.434          37.800
  20109848.2894  105677900.70347       636.1914         47.7004
  24996591.1724  131358148.92146     -3008.5784         40.9004
  24783940.734   130240493.781 7     -3180.609          42.600
  22331825.4144  117354888.81747     -2822.5354         47.2004
  20864608.8984  109644193.63848       343.5044         51.7004
  23772186.930   124923797.169 7      3686.637          44.100
  20505311.2504  107756245.52648     -1127.9104         52.3004
  25511275.406   134062601.218 6     -3339.004          38.000
  21746742.6724  114280090.39347      2548.6024         47.9004
  24886289.1884  130778351.22246      -533.8794         37.4004
  23534353.7274  123673833.14747      3116.2074         43.4004
 11 10 21 21  5 33.0000000  0 12G16G13G32G17G20G04G07G23G31G10G30G02
  25379107.188   133368135.076 6      2646.289          38.300
  20109727.1724  105677264.46348       636.0704         48.0004
  24997163.4304  131361157.26646     -3008.3164         40.5004
  24784545.828   130243674.197 6     -3180.426          41.300
  22332362.3134  117357711.25147     -2822.5044         47.3004
  20864543.7114  109643850.25748       343.1604         51.6004
  23771484.953   124920110.409 7      3686.840          44.000
  20505525.4144  107757373.49948     -1128.1294         52.0004
  25511911.500   134065940.173 6     -3339.082          38.100
  21746257.7194  114277541.72048      2548.6134         48.5004
  24886391.5004  130778885.23346      -534.1914         37.9004
  23533760.9614  123670716.84747      3116.1884         43.8004
 11 10 21 21  5 34.0000000  0 12G16G13G32G17G20G04G07G23G31G10G30G02
  25378603.695   133365488.742 6      2645.945          38.300
  20109605.9384  105676628.71548       635.4574         48.3004
  24997735.7114  131364165.61546     -3008.4924         40.6004
  24785150.883   130246854.581 6     -3180.465          41.000
  22332899.5634  117360533.85947     -2822.7544         47.0004
  20864478.6644  109643507.46948       342.4454         51.4004
  23770783.633   124916423.736 7      3686.648          43.900
  20505739.9224  107758501.84048     -1128.6334         51.9004
  25512546.461   134069279.261 6     -3339.219          37.700
  21745772.6484  114274993.24848      2548.3874         48.2004
  24886493.8364  130779419.83546      -534.9614         37.7004
  23533168.1254  123667600.76547      3115.9384         44.0004
 11 10 21 21  5 35.0000000  0 12G16G13G32G17G20G04G07G23G31G10G30G02
  25378099.742   133362842.661 6      2645.949          38.100
  20109485.5634  105675993.50948       634.9454         48.3004
  24998308.0784  131367174.05946     -3008.3244         40.5004
  24785756.234   130250035.025 6     -3180.465          41.400
  22333436.4924  117363356.76247     -2823.0624         46.7004
  20864413.2814  109643165.36748       341.7934         51.3004
  23770082.156   124912737.212 7      3686.508          43.600
  20505955.1334  107759630.63948     -1129.0274         51.8004
  25513182.102   134072618.605 6     -3339.539          38.100
  21745287.6724  114272445.09248      2548.0434         48.7004
  24886594.9064  130779955.09546      -535.6524         38.7004
  23532575.1254  123664485.07847      3115.5704         43.9004
 11 10 21 21  5 36.0000000  0 12G16G13G32G17G20G04G07G23G31G10G30G02
  25377595.852   133360196.825 6      2645.805          37.700
  20109364.5314  105675358.86648       634.4024         48.2004
  24998881.0634  131370182.57446     -3008.4224         41.2004
  24786361.203   130253215.547 6     -3180.484          41.300
  22333973.5314  117366179.91347     -2823.2934         46.5004
  20864348.5004  109642823.90448       341.1454         51.7004
  23769380.977   124909050.847 7      3686.324          44.500
  20506169.9844  107760759.86648     -1129.4264         51.7004
  25513817.688   134075958.176 6     -3339.508          37.500
  21744802.3204  114269897.20448      2547.7424         48.5004
  24886696.8834  130780491.02746      -536.2934         39.0004
  23531981.9534  123661369.68847      3115.2974         44.4004
 11 10 21 21  5 37.0000000  0 12G16G13G32G17G20G04G07G23G31G10G30G02
  25377092.063   133357551.483 6      2644.938          37.000
  20109243.5394  105674724.96448       633.4184         48.4004
  24999453.3914  131373191.36646     -3009.0124         41.3004
  24786966.508   130256396.346 6     -3181.023          41.400
  22334511.2034  117369003.55847     -2824.0234         46.6004
  20864283.4384  109642483.35248       340.0664         52.0004
  23768679.078   124905364.836 7      3685.793          44.400
  20506384.8754  107761889.78148     -1130.2974         51.8004
  25514452.977   134079298.150 6     -3340.316          36.900
  21744318.0704  114267349.81348      2547.0594         48.6004
  24886798.9224  130781027.83046      -537.2894         38.3004
  23531390.1254  123658254.85647      3114.4734         44.5004
 11 10 21 21  5 38.0000000  0 12G16G13G32G17G20G04G07G23G31G10G30G02
  25376588.531   133354906.090 6      2645.566          37.200
  20109122.9694  105674091.36548       633.6024         49.0004
  25000026.5864  131376199.99846     -3008.4964         41.0004
  24787571.523   130259576.946 6     -3180.383          41.400
  22335048.6334  117371827.20347     -2823.5904         46.8004
  20864219.0164  109642143.22848       340.0204         51.7004
  23767978.039   124901678.708 7      3686.316          44.300
  20506600.0394  107763019.87848     -1130.0314         51.7004
  25515088.695   134082638.157 6     -3339.918          37.400
  21743833.2664  114264802.45948      2547.5004         48.8004
  24886901.1484  130781565.02546      -537.3444         38.4004
  23530796.2424  123655140.11647      3114.8244         44.7004
 11 10 21 21  5 39.0000000  0 12G16G13G32G17G20G04G07G23G31G10G30G02
  25376086.086   133352261.026 6      2644.922          37.200
  20109002.8134  105673458.42648       632.6094         49.1004
  25000598.6174  131379208.78346     -3008.8284         40.5004
  24788176.594   130262757.697 6     -3180.816          41.300
  22335585.7194  117374651.19247     -2824.1484         46.7004
  20864154.1414  109641803.83248       338.9694         52.0004
  23767276.156   124897992.807 7      3685.891          44.700
  20506815.1804  107764150.49548     -1130.8054         51.5004
  25515724.617   134085978.465 6     -3340.480          37.500
  21743348.8054  114262255.47448      2546.8014         48.8004
  24887003.7424  130782102.93446      -538.2074         38.4004
  23530204.3984  123652025.76447      3114.1914         44.5004
 11 10 21 21  5 40.0000000  0 12G16G13G32G17G20G04G07G23G31G10G30G02
  25375582.258   133349616.175 6      2644.750          37.600
  20108882.4774  105672825.98448       632.1454         49.1004
  25001171.0554  131382217.61346     -3008.7854         40.9004
  24788781.969   130265938.488 6     -3180.695          41.000
  22336123.7344  117377475.41247     -2824.2544         46.7004
  20864090.0784  109641465.11448       338.4104         51.4004
  23766575.188   124894307.061 7      3685.727          44.600
  20507030.5004  107765281.55848     -1131.2424         51.8004
  25516360.625   134089318.981 6     -3340.676          37.800
  21742864.0084  114259708.75048      2546.6094         49.1004
  24887106.6094  130782641.55246      -538.9224         38.4004
  23529611.5784  123648911.75447      3113.9384         44.5004
 11 10 21 21  5 41.0000000  0 12G16G13G32G17G20G04G07G23G31G10G30G02
  25375078.938   133346971.597 6      2644.297          36.800
  20108762.6024  105672194.09248       631.5234         49.0004
  25001744.2274  131385226.51446     -3009.0984         40.6004
  24789386.805   130269119.349 6     -3180.914          40.300
  22336660.6954  117380299.91047     -2824.6484         46.9004
  20864025.4694  109641127.03448       337.7154         51.7004
  23765873.727   124890621.425 7      3685.520          45.000
  20507245.6644  107766413.04448     -1131.7584         52.1004
  25516995.953   134092659.662 6     -3340.875          37.500
  21742379.6484  114257162.29848      2546.3404         49.2004
  24887209.0234  130783180.76946      -539.5784         38.7004
  23529018.5704  123645798.04747      3113.5274         44.3004
 11 10 21 21  5 42.0000000  0 12G16G13G32G17G20G04G07G23G31G10G30G02
  25374575.844   133344327.099 6      2644.484          36.200
  20108642.0554  105671562.66748       631.1684         48.8004
  25002317.0164  131388235.39746     -3008.9344         40.5004
  24789992.164   130272300.189 6     -3180.805          40.200
  22337198.1644  117383124.59847     -2824.8524         46.3004
  20863961.4304  109640789.56848       337.1024         51.5004
  23765172.508   124886935.890 7      3685.461          44.600
  20507461.0554  107767544.91348     -1132.1094         52.1004
  25517632.125   134096000.577 6     -3341.020          38.100
  21741894.9844  114254616.07348      2546.0664         49.1004
  24887310.5164  130783720.60646      -540.2234         37.8004
  23528426.3524  123642684.57947      3113.3754         44.4004
 11 10 21 21  5 43.0000000  0 12G16G13G32G17G20G04G07G23G31G10G30G02
  25374072.461   133341682.898 5      2644.223          35.900
  20108522.3204  105670931.81648       630.7114         48.8004
  25002889.3984  131391244.41246     -3008.9024         40.5004
  24790597.328   130275481.112 6     -3180.754          39.600
  22337735.9384  117385949.56847     -2824.9654         46.0004
  20863897.3834  109640452.76848       336.6564         51.5004
  23764471.000   124883250.526 7      3685.383          44.600
  20507676.6484  107768677.26148     -1132.4964         52.1004
  25518268.211   134099341.752 6     -3341.176          38.100
  21741410.4064  114252070.14348      2545.9344         48.9004
  24887413.7424  130784261.10446      -540.7344         38.0004
  23527834.2034  123639571.51147      3113.0124         44.7004
 11 10 21 21  5 44.0000000  0 12G16G13G32G17G20G04G07G23G31G10G30G02
  25373568.656   133339038.903 6      2643.777          36.100
  20108402.1954  105670301.44048       630.1414         48.9004
  25003461.3834  131394253.41646     -3008.9614         40.5004
  24791203.617   130278662.039 6     -3180.875          38.700
  22338273.7974  117388774.74647     -2825.3054         46.1004
  20863833.4224  109640116.59148       335.9064         51.2004
  23763770.000   124879565.219 7      3685.188          45.000
  20507892.1024  107769809.96448     -1132.8984         52.1004
  25518904.094   134102683.055 6     -3341.578          37.700
  21740925.8444  114249524.42348      2545.6374         48.4004
  24887516.9694  130784802.20046      -541.3054         37.2004
  23527242.0944  123636458.67647      3112.7304         44.8004
 11 10 21 21  5 45.0000000  0 12G16G13G32G17G20G04G07G23G31G10G30G02
  25373065.680   133336395.215 6      2643.824          37.100
  20108282.2664  105669671.73348       629.6054         48.6004
  25004034.1724  131397262.56946     -3009.0314         40.8004
  24791808.328   130281843.093 6     -3181.102          38.600
  22338811.2344  117391600.27647     -2825.5474         46.3004
  20863769.2734  109639781.15148       335.2734         51.4004
  23763068.680   124875880.156 7      3685.117          44.900
  20508107.7894  107770943.21148     -1133.3324         51.5004
  25519540.391   134106024.667 6     -3341.477          38.500
  21740441.4774  114246979.09448      2545.3404         48.4004
  24887619.9844  130785344.05246      -542.0044         37.7004
  23526649.6954  123633346.26847      3112.4024         44.7004
 11 10 21 21  5 46.0000000  0 12G16G13G32G17G20G04G07G23G31G10G30G02
  25372563.320   133333751.748 6      2643.234          37.000
  20108162.4694  105669042.49848       629.0514         48.5004
  25004606.8054  131400271.76046     -3009.1524         40.7004
  24792414.453   130285024.170 6     -3181.082          39.400
  22339348.8594  117394425.99347     -2825.7274         46.0004
  20863705.7584  109639446.33148       334.5744         51.4004
  23762367.773   124872195.181 7      3685.074          45.000
  20508323.5554  107772076.86148     -1133.7934         51.7004
  25520176.141   134109366.492 6     -3341.926          38.000
  21739957.2034  114244433.97348      2545.0824         48.1004
  24887723.0634  130785886.50646      -542.7234         38.2004
  23526057.1804  123630234.13947      3112.1024         45.2004
 11 10 21 21  5 47.0000000  0 12G16G13G32G17G20G04G07G23G31G10G30G02
  25372061.305   133331108.580 6      2642.938          36.400
  20108042.6254  105668413.93048       628.1914         48.5004
  25005179.6174  131403281.13946     -3009.5624         40.7004
  24793019.797   130288205.375 6     -3181.383          39.200
  22339886.8674  117397252.10947     -2826.3714         45.8004
  20863642.3284  109639112.33448       333.5124         51.5004
  23761666.820   124868510.490 7      3684.570          45.200
  20508539.3674  107773211.07448     -1134.5664         51.3004
  25520811.570   134112708.614 6     -3342.230          37.900
  21739472.9064  114241889.25847      2544.4924         47.5004
  24887827.4924  130786429.75646      -543.6684         38.2004
  23525465.6804  123627122.46247      3111.4224         44.8004
 11 10 21 21  5 48.0000000  0 12G16G13G32G17G20G04G07G23G31G10G30G02
  25371557.633   133328465.644 6      2642.887          36.600
  20107923.1884  105667785.82848       627.8754         48.4004
  25005752.2974  131406290.52646     -3009.4024         40.6004
  24793624.820   130291386.606 6     -3181.203          39.900
  22340424.7344  117400078.41647     -2826.4024         46.1004
  20863578.7344  109638778.90048       333.0984         51.3004
  23760965.617   124864825.872 7      3684.598          44.400
  20508755.3914  107774345.64248     -1134.7544         51.6004
  25521447.742   134116050.880 6     -3342.352          37.900
  21738988.9144  114239344.76447      2544.3834         47.3004
  24887930.9384  130786973.59346      -544.2814         37.5004
  23524873.2344  123624011.02547      3111.2584         45.4004
 11 10 21 21  5 49.0000000  0 12G16G13G32G17G20G04G07G23G31G10G30G02
  25371054.203   133325822.843 5      2642.555          35.700
  20107803.8834  105667158.25148       627.2464         48.3004
  25006325.0554  131409299.94346     -3009.6094         40.6004
  24794229.945   130294567.865 6     -3181.449          40.200
  22340962.4064  117402904.94247     -2826.6764         46.2004
  20863515.6954  109638446.09648       332.3484         51.5004
  23760263.961   124861141.356 7      3684.355          44.900
  20508971.1484  107775480.65948     -1135.3324         51.7004
  25522083.297   134119393.373 6     -3342.539          38.000
  21738504.6564  114236800.50247      2544.1024         47.6004
  24888034.8524  130787518.03046      -544.8094         37.8004
  23524281.5864  123620899.92047      3110.8594         45.3004
 11 10 21 21  5 50.0000000  0 12G16G13G32G17G20G04G07G23G31G10G30G02
  25370551.094   133323180.344 5      2642.488          35.300
  20107684.6254  105666531.25648       626.7894         48.1004
  25006897.5634  131412309.45546     -3009.5864         40.4004
  24794836.078   130297749.222 6     -3181.398          40.900
  22341500.7424  117405731.80347     -2827.0274         46.2004
  20863452.3134  109638114.00848       331.7504         51.2004
  23759563.383   124857457.045 7      3684.250          44.900
  20509187.1564  107776616.13948     -1135.6764         51.7004
  25522719.984   134122736.158 6     -3342.848          37.900
  21738020.3914  114234256.58747      2543.7704         47.6004
  24888137.6484  130788063.20346      -545.4844         38.1004
  23523688.7504  123617789.15747      3110.5784         45.1004
 11 10 21 21  5 51.0000000  0 12G16G13G32G17G20G04G07G23G31G10G30G02
  25370047.422   133320538.065 6      2642.109          36.400
  20107565.5554  105665904.73848       626.2034         48.3004
  25007470.8754  131415318.98846     -3009.6684         40.4004
  24795441.391   130300930.537 6     -3181.340          41.200
  22342038.3134  117408558.82347     -2827.1954         46.5004
  20863388.9454  109637782.51748       331.1564         51.0004
  23758862.180   124853772.787 7      3684.105          45.300
  20509403.5554  107777752.00248     -1136.1484         51.8004
  25523355.180   134126079.093 6     -3343.117          38.200
  21737536.7034  114231712.87847      2543.5274         47.6004
  24888241.3364  130788608.91846      -546.0124         38.3004
  23523097.2734  123614678.65847      3110.2274         45.1004
 11 10 21 21  5 52.0000000  0 12G16G13G32G17G20G04G07G23G31G10G30G02
  25369546.125   133317896.012 6      2641.832          36.600
  20107446.2424  105665278.79448       625.6414         48.1004
  25008043.4534  131418328.63046     -3009.7464         39.9004
  24796047.031   130304111.978 6     -3181.582          41.100
  22342576.5634  117411386.13947     -2827.4344         46.7004
  20863326.3364  109637451.74848       330.3984         50.7004
  23758160.648   124850088.712 7      3684.004          45.600
  20509619.6484  107778888.32448     -1136.5474         51.8004
  25523991.688   134129422.313 6     -3343.422          38.100
  21737052.3444  114229169.46147      2543.3164         47.8004
  24888345.4224  130789155.35146      -546.7114         38.0004
  23522505.5704  123611568.53647      3109.8834         44.9004
 11 10 21 21  5 53.0000000  0 12G16G13G32G17G20G04G07G23G31G10G30G02
  25369042.969   133315254.113 6      2641.750          37.000
  20107327.4144  105664653.32248       624.9534         48.0004
  25008615.6804  131421338.25146     -3009.8404         40.1004
  24796652.305   130307293.352 6     -3181.707          40.400
  22343114.5634  117414213.64347     -2827.8324         46.6004
  20863263.3134  109637121.56848       329.6134         51.1004
  23757460.820   124846404.704 7      3683.680          45.800
  20509836.2274  107780025.02148     -1137.1994         51.9004
  25524627.625   134132765.590 6     -3343.645          37.900
  21736568.6254  114226626.26848      2542.8134         48.2004
  24888450.0164  130789702.34246      -547.5984         37.8004
  23521913.2814  123608458.64747      3109.5124         44.9004
 11 10 21 21  5 54.0000000  0 12G16G13G32G17G20G04G07G23G31G10G30G02
  25368540.844   133312612.630 6      2641.125          37.000
  20107208.1644  105664028.54748       624.3714         48.3004
  25009188.5084  131424348.12046     -3009.9344         40.4004
  24797257.727   130310474.965 6     -3181.797          40.600
  22343652.8594  117417041.55147     -2828.1564         46.6004
  20863200.5704  109636792.18548       328.9024         51.2004
  23756759.094   124842721.012 7      3683.504          45.900
  20510052.6804  107781162.32748     -1137.7234         51.9004
  25525264.273   134136109.305 6     -3343.910          37.900
  21736084.5394  114224083.50248      2542.4964         48.3004
  24888554.2034  130790250.17046      -548.2274         37.9004
  23521321.6804  123605349.24447      3109.1604         44.4004
 11 10 21 21  5 55.0000000  0 12G16G13G32G17G20G04G07G23G31G10G30G02
  25368037.688   133309971.226 6      2641.129          37.200
  20107089.4844  105663404.15548       624.4064         48.5004
  25009761.0314  131427357.89846     -3009.6604         40.1004
  24797862.773   130313656.469 6     -3181.316          40.700
  22344190.7734  117419869.57247     -2827.9024         46.7004
  20863138.1254  109636463.32748       328.7424         51.0004
  23756058.477   124839037.305 7      3683.934          45.900
  20510269.0704  107782299.90548     -1137.5514         52.0004
  25525900.555   134139453.107 6     -3343.773          37.900
  21735600.9064  114221540.86148      2542.6884         48.5004
  24888658.4924  130790798.50346      -548.4844         37.2004
  23520729.7664  123602240.02947      3109.2854         44.4004
 11 10 21 21  5 56.0000000  0 12G16G13G32G17G20G04G07G23G31G10G30G02
  25367534.680   133307330.121 6      2641.090          37.500
  20106970.8444  105662780.40248       623.4384         48.4004
  25010333.6094  131430367.80146     -3009.9534         40.2004
  24798468.398   130316838.091 6     -3181.668          40.500
  22344729.0004  117422697.94847     -2828.5944         46.3004
  20863075.6024  109636135.18948       327.7704         51.0004
  23755357.797   124835353.830 7      3683.332          46.200
  20510485.6254  107783438.01048     -1138.3874         51.9004
  25526536.813   134142797.193 6     -3344.324          37.800
  21735116.9304  114218998.57748      2542.0514         48.9004
  24888762.8984  130791347.55146      -549.4844         37.6004
  23520138.2974  123599131.22547      3108.5634         44.5004
 11 10 21 21  5 57.0000000  0 12G16G13G32G17G20G04G07G23G31G10G30G02
  25367031.930   133304689.236 6      2640.820          37.100
  20106852.0004  105662157.15448       623.0124         48.8004
  25010906.5004  131433377.76446     -3010.0044         40.1004
  24799074.078   130320019.790 6     -3181.711          41.000
  22345267.5314  117425526.53947     -2828.7114         46.4004
  20863013.1724  109635807.71948       327.1914         51.4004
  23754656.555   124831670.465 7      3683.383          45.700
  20510702.2584  107784576.53048     -1138.6684         52.1004
  25527172.766   134146141.454 6     -3344.293          37.200
  21734633.4304  114216456.55248      2541.8834         48.9004
  24888866.9224  130791897.24146      -549.9844         37.3004
  23519546.9304  123596022.70047      3108.3524         44.5004
 11 10 21 21  5 58.0000000  0 12G16G13G32G17G20G04G07G23G31G10G30G02
  25366529.242   133302048.555 6      2640.523          37.400
  20106733.5784  105661534.43848       622.4734         48.7004
  25011479.4924  131436387.74746     -3009.9654         40.2004
  24799679.297   130323201.471 6     -3181.684          40.800
  22345805.3444  117428355.37647     -2829.0274         46.4004
  20862950.9924  109635480.90148       326.5164         51.7004
  23753955.672   124827987.222 7      3683.156          44.900
  20510919.0394  107785715.47048     -1139.1484         52.4004
  25527809.445   134149485.957 6     -3344.652          37.900
  21734149.5314  114213914.79848      2541.6294         49.3004
  24888972.5234  130792447.56146      -550.6954         37.3004
  23518955.7664  123592914.50447      3108.0394         44.6004
 11 10 21 21  5 59.0000000  0 12G16G13G32G17G20G04G07G23G31G10G30G02
  25366027.477   133299408.142 6      2640.422          37.600
  20106615.0474  105660912.27748       621.9614         48.9004
  25012052.0394  131439397.86246     -3010.1914         39.9004
  24800284.297   130326383.242 6     -3181.820          41.300
  22346344.0784  117431184.47147     -2829.1254         46.8004
  20862889.0164  109635154.74948       325.8714         51.5004
  23753254.742   124824304.106 7      3683.156          45.200
  20511135.5784  107786854.85448     -1139.5624         52.8004
  25528445.805   134152830.680 6     -3344.848          37.800
  21733666.0784  114211373.29648      2541.4024         49.4004
  24889076.7664  130792998.53246      -551.3524         37.9004
  23518364.4454  123589806.62447      3107.7664         44.8004
 11 10 21 21  6  0.0000000  0 12G16G13G32G17G20G04G07G23G31G10G30G02
  25365526.242   133296768.004 6      2640.059          38.300
  20106497.1094  105660290.71248       621.3164         49.1004
  25012625.4614  131442408.04546     -3010.0904         40.0004
  24800889.305   130329565.118 6     -3181.855          41.400
  22346882.5084  117434013.89847     -2829.5554         46.4004
  20862827.1414  109634829.30048       325.1724         51.6004
  23752553.516   124820621.237 7      3682.848          45.100
  20511352.6094  107787994.74548     -1140.0784         52.6004
  25529082.445   134156175.676 6     -3345.219          37.700
  21733182.5394  114208832.16748      2540.9494         49.1004
  24889182.0704  130793550.18646      -551.8674         37.8004
  23517772.7274  123586699.13947      3107.4344         44.5004
 11 10 21 21  6  1.0000000  0 12G16G13G32G17G20G04G07G23G31G10G30G02
  25365023.7974  133294128.04146      2639.5784         38.9004
  20106378.7894  105659669.59648       620.7114         48.8004
  25013198.2424  131445418.20846     -3010.1874         40.4004
  24801495.414   130332746.930 6     -3181.965          41.400
  22347420.8594  117436843.45547     -2829.7894         46.4004
  20862765.4454  109634504.43848       324.4804         51.5004
  23751852.969   124816938.374 7      3682.707          45.600
  20511569.5704  107789134.95648     -1140.5124         52.7004
  25529719.211   134159520.786 6     -3345.301          38.000
  21732698.9534  114206291.17848      2540.7704         49.3004
  24889287.3364  130794102.43546      -552.7074         38.1004
  23517181.2194  123583591.86747      3107.0004         44.7004
 11 10 21 21  6  2.0000000  0 12G16G13G32G17G20G04G07G23G31G10G30G02
  25364520.8834  133291488.30746      2639.6024         39.0004
  20106260.9224  105659049.03648       620.3554         48.5004
  25013770.9304  131448428.50246     -3010.0664         40.6004
  24802101.023   130335928.840 6     -3181.922          41.300
  22347959.6094  117439673.32347     -2829.9654         46.6004
  20862703.8204  109634180.25448       323.9694         51.5004
  23751152.008   124813255.694 7      3682.668          45.400
  20511786.8444  107790275.65148     -1140.8124         52.7004
  25530354.961   134162866.178 6     -3345.594          38.100
  21732215.3594  114203750.53848      2540.5474         49.3004
  24889392.5004  130794655.40146      -553.2894         37.8004
  23516590.1024  123580484.97947      3106.7934         44.6004
 11 10 21 21  6  3.0000000  0 12G16G13G32G17G20G04G07G23G31G10G30G02
  25364017.9454  133288848.87546      2639.3054         39.5004
  20106142.6094  105658429.08248       619.6174         48.9004
  25014344.0004  131451438.90846     -3010.5624         40.9004
  24802706.664   130339110.845 6     -3182.098          41.600
  22348498.1414  117442503.50347     -2830.5044         46.8004
  20862642.1254  109633856.78448       322.9694         51.3004
  23750451.055   124809573.185 7      3682.336          45.600
  20512003.5784  107791416.82948     -1141.4534         52.4004
  25530992.250   134166211.784 6     -3345.898          38.300
  21731731.9924  114201210.21748      2540.0474         49.6004
  24889497.7734  130795209.00446      -554.1374         37.9004
  23515999.4774  123577378.44247      3106.3054         44.5004
 11 10 21 21  6  4.0000000  0 12G16G13G32G17G20G04G07G23G31G10G30G02
  25363515.9774  133286209.70246      2639.1294         38.7004
  20106025.0784  105657809.69248       619.1524         49.0004
  25014917.1644  131454449.36646     -3010.4534         40.8004
  24803312.313   130342292.915 7     -3182.117          42.000
  22349037.0004  117445333.94947     -2830.5824         47.2004
  20862580.7894  109633534.01048       322.4694         51.1004
  23749750.297   124805890.879 7      3682.223          45.400
  20512220.7894  107792558.46448     -1141.7854         52.3004
  25531629.375   134169557.701 6     -3346.066          37.700
  21731248.6644  114198670.19948      2539.8914         49.0004
  24889602.2504  130795763.34146      -554.6414         37.9004
  23515408.2974  123574272.28647      3106.0234         44.1004
 11 10 21 21  6  5.0000000  0 12G16G13G32G17G20G04G07G23G31G10G30G02
  25363013.9844  133283570.68946      2638.8834         38.8004
  20105907.5004  105657190.80148       618.7584         49.1004
  25015489.2894  131457459.86346     -3010.4804         40.8004
  24803917.453   130345475.008 6     -3182.074          41.700
  22349575.5004  117448164.60747     -2830.7934         46.8004
  20862519.4534  109633211.85748       321.8984         51.2004
  23749049.375   124802208.636 7      3682.254          45.100
  20512438.2504  107793700.50648     -1142.2034         52.2004
  25532266.313   134172903.752 6     -3346.027          38.400
  21730765.2894  114196130.40448      2539.6724         49.1004
  24889707.9384  130796318.24146      -555.2424         37.6004
  23514817.0784  123571166.38947      3105.7584         44.3004
 11 10 21 21  6  6.0000000  0 12G16G13G32G17G20G04G07G23G31G10G30G02
  25362513.0314  133280931.90546      2638.5704         39.0004
  20105789.5394  105656572.42248       618.0514         49.2004
  25016062.7894  131460470.41046     -3010.6684         40.5004
  24804523.164   130348657.095 6     -3182.211          41.600
  22350113.9384  117450995.47347     -2831.0004         47.2004
  20862458.0704  109632890.32148       321.1294         51.4004
  23748349.180   124798526.522 7      3681.992          45.000
  20512655.2814  107794842.94148     -1142.7774         52.0004
  25532902.820   134176250.005 6     -3346.516          38.400
  21730282.1024  114193590.85848      2539.2854         49.3004
  24889813.9304  130796873.76246      -555.9614         38.1004
  23514226.4304  123568060.77847      3105.3634         43.7004
 11 10 21 21  6  7.0000000  0 12G16G13G32G17G20G04G07G23G31G10G30G02
  25362009.6954  133278293.33246      2638.7734         38.1004
  20105672.2194  105655954.52548       617.8444         48.8004
  25016635.3054  131463480.95046     -3010.3524         40.6004
  24805128.063   130351839.177 6     -3181.941          41.600
  22350652.9304  117453826.56447     -2830.9734         47.0004
  20862396.9384  109632569.42648       320.7384         51.5004
  23747648.273   124794844.493 7      3682.168          45.100
  20512873.1024  107795985.77648     -1142.8554         51.8004
  25533539.680   134179596.414 6     -3346.254          38.500
  21729799.0164  114191051.54048      2539.3524         49.2004
  24889919.8054  130797429.89846      -556.2934         38.2004
  23513635.6884  123564955.45747      3105.3444         43.8004
 11 10 21 21  6  8.0000000  0 12G16G13G32G17G20G04G07G23G31G10G30G02
  25361507.7274  133275655.09346      2638.0984         38.3004
  20105554.5084  105655337.35547       616.7814         46.8004
  25017208.0784  131466491.74546     -3010.8674         40.3004
  24805734.383   130355021.496 6     -3182.301          41.300
  22351191.2664  117456658.07347     -2831.6644         46.8004
  20862336.0314  109632249.32548       319.6604         51.6004
  23746947.313   124791162.759 7      3681.613          44.600
  20513091.0234  107797129.22148     -1143.7304         51.8004
  25534176.563   134182943.203 6     -3346.930          38.600
  21729315.9144  114188512.64648      2538.6954         48.1004
  24890027.1254  130797986.86546      -557.2584         38.6004
  23513043.9844  123561850.62547      3104.6724         43.6004
 11 10 21 21  6  9.0000000  0 12G16G13G32G17G20G04G07G23G31G10G30G02
  25361004.7274  133273017.19346      2637.9844         38.1004
  20105437.1954  105654720.77047       616.4384         47.0004
  25017781.0554  131469502.64946     -3010.7304         40.5004
  24806340.570   130358203.921 6     -3182.262          40.400
  22351730.4144  117459489.92047     -2831.8284         46.4004
  20862275.5554  109631929.98548       319.2304         51.6004
  23746247.109   124787481.243 7      3681.684          44.700
  20513308.6094  107798273.16648     -1143.9964         51.9004
  25534812.750   134186290.305 6     -3347.027          38.300
  21728832.9384  114185974.11547      2538.5984         47.8004
  24890132.5474  130798544.54446      -557.8164         38.9004
  23512453.5164  123558746.15147      3104.5084         44.1004
 11 10 21 21  6 10.0000000  0 12G16G13G32G17G20G04G07G23G31G10G30G02
  25360503.0234  133270379.45446      2637.4384         37.9004
  20105320.1484  105654104.64847       615.5394         47.2004
  25018353.7504  131472513.55146     -3011.3204         40.2004
  24806946.469   130361386.339 6     -3182.867          40.400
  22352269.3284  117462321.92047     -2832.4184         46.7004
  20862214.6644  109631611.21248       318.1684         51.5004
  23745546.180   124783799.802 7      3681.129          44.100
  20513526.3594  107799417.47048     -1144.8284         51.6004
  25535450.219   134189637.542 6     -3347.660          38.300
  21728349.7504  114183435.77248      2537.9144         48.0004
  24890238.8284  130799102.77746      -558.8444         38.7004
  23511863.4304  123555641.96947      3103.7664         44.5004
 11 10 21 21  6 11.0000000  0 12G16G13G32G17G20G04G07G23G31G10G30G02
  25360002.3134  133267741.88846      2637.5554         38.3004
  20105203.0704  105653488.99347       615.4884         47.9004
  25018926.8594  131475524.43846     -3010.7584         40.1004
  24807551.359   130364568.701 6     -3182.395          40.600
  22352808.3524  117465154.09247     -2832.2074         46.3004
  20862153.9224  109631293.04348       317.9104         51.6004
  23744845.555   124780118.405 7      3681.453          44.600
  20513743.8754  107800562.13048     -1144.8014         51.7004
  25536087.180   134192984.915 6     -3347.445          38.100
  21727866.6564  114180897.63948      2538.0594         48.4004
  24890344.6644  130799661.61946      -559.1414         38.3004
  23511272.4534  123552538.03047      3103.8364         44.3004
 11 10 21 21  6 12.0000000  0 12G16G13G32G17G20G04G07G23G31G10G30G02
  25359500.2894  133265104.52846      2637.5314         38.7004
  20105085.6174  105652873.91348       614.8754         48.4004
  25019499.9064  131478535.42246     -3010.9454         40.2004
  24808157.555   130367751.158 6     -3182.453          39.800
  22353347.1414  117467986.57447     -2832.5394         46.0004
  20862093.8594  109630975.55248       317.2344         51.7004
  23744145.250   124776437.200 7      3681.316          44.700
  20513962.0864  107801707.24748     -1145.2274         51.8004
  25536724.156   134196332.521 6     -3347.566          39.000
  21727383.9064  114178359.79748      2537.8284         48.8004
  24890451.1564  130800221.13146      -559.8164         38.3004
  23510681.2894  123549434.44547      3103.5434         43.9004
 11 10 21 21  6 13.0000000  0 12G16G13G32G17G20G04G07G23G31G10G30G02
  25358997.3524  133262467.45646      2637.0004         37.9004
  20104968.8594  105652259.33248       614.3524         48.8004
  25020073.3834  131481546.45246     -3011.0474         40.0004
  24808763.055   130370933.587 6     -3182.535          40.400
  22353885.9224  117470819.26947     -2832.7854         46.3004
  20862033.6884  109630658.70148       316.4774         51.3004
  23743444.859   124772756.104 7      3681.031          44.900
  20514179.8054  107802852.77948     -1145.7504         51.5004
  25537361.156   134199680.354 6     -3348.012          39.200
  21726901.3204  114175822.21348      2537.4534         49.1004
  24890557.8984  130800781.23746      -560.4144         39.0004
  23510091.0864  123546331.14847      3103.0944         43.9004
 11 10 21 21  6 14.0000000  0 12G16G13G32G17G20G04G07G23G31G10G30G02
  25358495.9614  133259830.58846      2636.7424         37.7004
  20104851.8444  105651645.31748       613.6954         48.5004
  25020646.1414  131484557.55546     -3011.3054         40.7004
  24809368.500   130374116.108 6     -3182.613          40.600
  22354425.5234  117473652.23547     -2833.1764         46.1004
  20861973.1094  109630342.51548       315.8524         51.4004
  23742744.250   124769075.163 7      3680.836          45.000
  20514397.9924  107803998.75948     -1146.2464         51.9004
  25537998.461   134203028.382 6     -3348.172          39.000
  21726418.1254  114173284.92148      2537.1454         49.0004
  24890664.8054  130801342.04046      -561.1604         39.4004
  23509500.5634  123543228.19347      3102.7464         43.9004
 11 10 21 21  6 15.0000000  0 12G16G13G32G17G20G04G07G23G31G10G30G02
  25357993.5084  133257194.00446      2636.2624         38.3004
  20104735.2424  105651031.88148       613.0394         48.1004
  25021219.0554  131487568.74346     -3011.3984         40.5004
  24809974.109   130377298.753 6     -3182.848          40.900
  22354964.7344  117476485.51547     -2833.4844         46.6004
  20861913.1484  109630027.01948       315.0434         51.7004
  23742043.555   124765394.398 7      3680.551          44.700
  20514616.3054  107805145.23648     -1146.7854         51.8004
  25538635.438   134206376.701 6     -3348.535          39.500
  21725935.4224  114170747.94248      2536.8484         48.5004
  24890771.9224  130801903.54746      -561.8754         39.2004
  23508909.8444  123540125.59647      3102.3444         44.3004
 11 10 21 21  6 16.0000000  0 12G16G13G32G17G20G04G07G23G31G10G30G02
  25357491.5474  133254557.55746      2636.2544         38.3004
  20104618.5784  105650418.93448       612.5784         48.2004
  25021792.2274  131490579.97346     -3011.3714         40.0004
  24810579.320   130380481.369 6     -3182.742          40.700
  22355503.7114  117479318.97847     -2833.7464         46.1004
  20861853.2664  109629712.18048       314.4264         51.8004
  23741343.695   124761713.742 7      3680.484          45.000
  20514834.3914  107806292.08948     -1147.1644         51.8004
  25539272.305   134209725.197 6     -3348.691          39.600
  21725452.6484  114168211.22348      2536.4384         48.4004
  24890878.9304  130802465.64746      -562.5434         39.6004
  23508319.8444  123537023.30447      3101.9654         44.1004
 11 10 21 21  6 17.0000000  0 12G16G13G32G17G20G04G07G23G31G10G30G02
  25356990.6884  133251921.38146      2636.1764         38.9004
  20104501.7664  105649806.50748       612.2624         48.2004
  25022365.4304  131493591.23546     -3011.1564         40.2004
  24811185.164   130383664.005 6     -3182.605          40.200
  22356043.1954  117482152.67747     -2833.7814         46.4004
  20861793.6334  109629397.93248       313.9964         51.9004
  23740643.258   124758033.185 7      3680.609          45.000
  20515052.7584  107807439.34448     -1147.4344         51.9004
  25539910.594   134213073.849 6     -3348.805          39.400
  21724970.2424  114165674.71748      2536.4304         48.4004
  24890986.2974  130803028.37246      -563.0514         39.9004
  23507729.2344  123533921.28747      3101.9104         44.1004
 11 10 21 21  6 18.0000000  0 12G16G13G32G17G20G04G07G23G31G10G30G02
  25356489.5084  133249285.55546      2635.5084         38.5004
  20104385.6334  105649194.73648       611.3954         48.6004
  25022938.6254  131496602.65646     -3011.7194         40.3004
  24811790.008   130386846.788 6     -3182.871          40.600
  22356582.3524  117484986.74547     -2834.3914         46.6004
  20861734.1884  109629084.47548       313.0164         52.0004
  23739942.625   124754352.887 7      3680.031          45.300
  20515271.1254  107808587.15348     -1148.2114         51.3004
  25540547.133   134216422.871 6     -3349.250          39.900
  21724487.5234  114163138.62148      2535.8134         48.5004
  24891093.0164  130803591.84546      -563.9064         39.4004
  23507138.9384  123530819.70247      3101.3484         44.0004
 11 10 21 21  6 19.0000000  0 12G16G13G32G17G20G04G07G23G31G10G30G02
  25355987.7424  133246649.80646      2635.8324         38.0004
  20104269.3444  105648583.36748       611.0944         48.5004
  25023510.5004  131499614.04946     -3011.5274         40.4004
  24812395.758   130390029.495 6     -3182.773          40.100
  22357121.3674  117487820.93747     -2834.3164         46.5004
  20861674.2974  109628771.57248       312.6334         52.0004
  23739242.406   124750672.603 7      3680.262          45.200
  20515489.7274  107809735.28448     -1148.3124         51.4004
  25541185.094   134219771.955 6     -3349.207          40.100
  21724004.7504  114160602.66948      2535.7704         48.5004
  24891200.6414  130804155.85946      -564.3164         39.4004
  23506549.2274  123527718.33547      3101.3364         43.9004
